{"features":[{"geometry":{"coordinates":[-75.21716798,39.97035597],"type":"Point"},"properties":{"Address":"53rd below Wyalusing Ave.","City":"Philadelphia","Date Closed":"1930","Date Established":"","Denomination":"Baptist","Name":"Blockley Baptist Church Grounds","Notes":"","Removed To":"West Chester and/or Mt. Zion Cemetery in Delaware County","State":"Pennsylvania","Telephone":"","Zip":"","description":"Baptist","id":"marker-huupwo3u0","marker-color":"","marker-size":"medium","marker-symbol":"cemetery","title":"Blockley Baptist Church Grounds"},"type":"Feature"},{"geometry":{"coordinates":[-75.02844196,40.04135074],"type":"Point"},"properties":{"Address":"Frankford Ave. south of Rhawn St.","City":"Philadelphia","Date Closed":"","Date Established":"","Denomination":"Baptist","Name":"Holmesburg Baptist Church Ground","Notes":"","Removed To":"","State":"Pennsylvania","Telephone":"","Zip":"","description":"Baptist","id":"marker-huupwo3v2","marker-color":"","marker-size":"medium","marker-symbol":"cemetery","title":"Holmesburg Baptist Church Ground"},"type":"Feature"},{"geometry":{"coordinates":[-75.21742836,39.97242486],"type":"Point"},"properties":{"Address":"48th & Lancaster Ave.","City":"Philadelphia","Date Closed":"","Date Established":"1849","Denomination":"Catholic","Name":"Cathedral Cemetery (Old Cathedral)","Notes":"","Removed To":"","State":"Pennsylvania","Telephone":"215-477-8918","Zip":"19131","description":"Catholic","id":"marker-huupwo3v5","marker-color":"","marker-size":"medium","marker-symbol":"cemetery","title":"Cathedral Cemetery (Old Cathedral)"},"type":"Feature"},{"geometry":{"coordinates":[-74.991562,40.054249],"type":"Point"},"properties":{"Address":"Convent Lane below Frankford Ave. at Bristol St.","City":"Philadelphia","Date Closed":"","Date Established":"1847","Denomination":"Catholic","Name":"Eden Hall Cemetery (Convent of the Sacred Heart)","Notes":"","Removed To":"","State":"Pennsylvania","Telephone":"","Zip":"","description":"Catholic","id":"marker-huupwo3v7","marker-color":"","marker-size":"medium","marker-symbol":"cemetery","title":"Eden Hall Cemetery (Convent of the Sacred Heart)"},"type":"Feature"},{"geometry":{"coordinates":[-75.174504,40.083639],"type":"Point"},"properties":{"Address":"3301 W Cheltenham Ave","City":"Philadelphia","Date Closed":"","Date Established":"1895","Denomination":"Catholic","Name":"Holy Sepulchre Cemetery","Notes":"","Removed To":"","State":"Pennsylvania","Telephone":"215-247-0691","Zip":"19118","description":"Catholic","id":"marker-huupwo3va","marker-color":"#f1f075","marker-size":"medium","marker-symbol":"cemetery","title":"Holy Sepulchre Cemetery"},"type":"Feature"},{"geometry":{"coordinates":[-74.92852868,40.12098768],"type":"Point"},"properties":{"Address":"5201 Hulmeville Rd.","City":"Cornwells Heights","Date Closed":"","Date Established":"1959","Denomination":"Catholic","Name":"Resurrection Cemetery","Notes":"","Removed To":"","State":"Pennsylvania","Telephone":"215-639-0965","Zip":"19020-3094","description":"Catholic","id":"marker-huupwo3ve","marker-color":"#f1f075","marker-size":"medium","marker-symbol":"cemetery","title":"Resurrection Cemetery"},"type":"Feature"},{"geometry":{"coordinates":[-75.61942514,39.98262607],"type":"Point"},"properties":{"Address":"1050 Pottstown Pike","City":"West Chester","Date Closed":"","Date Established":"","Denomination":"Catholic","Name":"St. Agnes Cemetery","Notes":"","Removed To":"","State":"Pennsylvania","Telephone":"610-692-4421","Zip":"19380-4136","description":"Catholic","id":"marker-huupwo3vf","marker-color":"#f1f075","marker-size":"medium","marker-symbol":"cemetery","title":"St. Agnes Cemetery"},"type":"Feature"},{"geometry":{"coordinates":[-75.14646023511885,39.95540773082385],"type":"Point"},"properties":{"Address":"4th & Vine St.","City":"Philadelphia","Date Closed":"","Date Established":"1797","Denomination":"Catholic","Name":"St. Augustine's Church Grounds","Notes":"","Removed To":"","State":"Pennsylvania","Telephone":"215-627-1838","Zip":"19106","description":"Catholic","id":"marker-huupwo3vh","marker-color":"#1087bf","marker-size":"medium","marker-symbol":"cemetery","title":"St. Augustine's Church Grounds"},"type":"Feature"},{"geometry":{"coordinates":[-75.02022069,40.03584045],"type":"Point"},"properties":{"Address":"8500 Frankford Ave","City":"Philadelphia","Date Closed":"","Date Established":"1869","Denomination":"Catholic","Name":"St. Dominic's Cemetery","Notes":"","Removed To":"","State":"Pennsylvania","Telephone":"215-624-5502","Zip":"19136","description":"Catholic","id":"marker-huupwo3vi","marker-color":"","marker-size":"medium","marker-symbol":"cemetery","title":"St. Dominic's Cemetery"},"type":"Feature"},{"geometry":{"coordinates":[-75.16119360923767,39.95120507123874],"type":"Point"},"properties":{"Address":"21 S 13th St","City":"Philadelphia","Date Closed":"","Date Established":"1837","Denomination":"Catholic","Name":"St. John the Evangelist","Notes":"","Removed To":"","State":"Pennsylvania","Telephone":"","Zip":"19107","description":"Catholic","id":"marker-huupwo3vm","marker-color":"#1087bf","marker-size":"small","marker-symbol":"cemetery","title":"St. John the Evangelist"},"type":"Feature"},{"geometry":{"coordinates":[-75.214128,40.257395],"type":"Point"},"properties":{"Address":"County Line Rd. & Upper State Rd.","City":"Chalfont","Date Closed":"","Date Established":"1983","Denomination":"Catholic","Name":"St. John Neumann Cemetery","Notes":"","Removed To":"","State":"Pennsylvania","Telephone":"215-822-0680","Zip":"18914","description":"Catholic","id":"marker-huupwo3vn","marker-color":"#f1f075","marker-size":"medium","marker-symbol":"cemetery","title":"St. John Neumann Cemetery"},"type":"Feature"},{"geometry":{"coordinates":[-75.14757335186005,39.946483967587604],"type":"Point"},"properties":{"Address":"3rd St and Willings Alley","City":"Philadelphia","Date Closed":"","Date Established":"1732","Denomination":"Catholic","Name":"St. Joseph's","Notes":"","Removed To":"","State":"Pennsylvania","Telephone":"","Zip":"","description":"Catholic","id":"marker-huupwo3vo","marker-color":"#1087bf","marker-size":"medium","marker-symbol":"cemetery","title":"St. Joseph's"},"type":"Feature"},{"geometry":{"coordinates":[-75.14835119247437,39.945575076610346],"type":"Point"},"properties":{"Address":"252 S. 4th St","City":"Philadelphia","Date Closed":"","Date Established":"","Denomination":"Catholic","Name":"St. Mary's Catholic Cemetery","Notes":"","Removed To":"","State":"Pennsylvania","Telephone":"215-923-7930","Zip":"19106-3722","description":"Catholic","id":"marker-huupwo3vp","marker-color":"#cccccc","marker-size":"medium","marker-symbol":"cemetery","title":"St. Mary's Catholic Cemetery"},"type":"Feature"},{"geometry":{"coordinates":[-75.3491995,39.94414636],"type":"Point"},"properties":{"Address":"1600 S. Sproul Rd.","City":"Springfield","Date Closed":"","Date Established":"1958","Denomination":"Catholic","Name":"St. Peter & St. Paul Cemetery","Notes":"","Removed To":"","State":"Pennsylvania","Telephone":"610-544-4933","Zip":"19064-1134","description":"Catholic","id":"marker-huupwo3vt","marker-color":"#f1f075","marker-size":"medium","marker-symbol":"cemetery","title":"St. Peter & St. Paul Cemetery"},"type":"Feature"},{"geometry":{"coordinates":[-75.16205728054047,39.940925560823466],"type":"Point"},"properties":{"Address":"12th & Fitzwater Sts.","City":"Philadelphia","Date Closed":"1914","Date Established":"1838","Denomination":"Episcopal","Name":"All Saint's Ground","Notes":"(Church Established 1838) (closed 1914, whereabouts of remains unknown)","Removed To":"","State":"Pennsylvania","Telephone":"","Zip":"","description":"Episcopal","id":"marker-huupwo3vw","marker-color":"#1087bf","marker-size":"medium","marker-symbol":"cemetery","title":"All Saint's Ground"},"type":"Feature"},{"geometry":{"coordinates":[-74.99562233,40.05876283],"type":"Point"},"properties":{"Address":"Frankford Ave. & Eden St.","City":"Philadelphia","Date Closed":"","Date Established":"1772","Denomination":"Episcopal","Name":"All Saint's Cemetery","Notes":"(Church Established 1772)","Removed To":"","State":"Pennsylvania","Telephone":"215-637-8787","Zip":"","description":"Episcopal","id":"marker-huupwo3vx","marker-color":"","marker-size":"medium","marker-symbol":"cemetery","title":"All Saint's Cemetery"},"type":"Feature"},{"geometry":{"coordinates":[-75.14411330223083,39.95076916417209],"type":"Point"},"properties":{"Address":"20 N. American St.","City":"Philadelphia","Date Closed":"","Date Established":"1728","Denomination":"Episcopal","Name":"Christ Church Cemetery","Notes":"","Removed To":"","State":"Pennsylvania","Telephone":"215-922-1695","Zip":"19106-4592","description":"Episcopal","id":"marker-huupwo3vy","marker-color":"#1087bf","marker-size":"medium","marker-symbol":"cemetery","title":"Christ Church Cemetery"},"type":"Feature"},{"geometry":{"coordinates":[-75.13891786336899,39.98568843887294],"type":"Point"},"properties":{"Address":"3rd & Dauphin St.","City":"Philadelphia","Date Closed":"","Date Established":"","Denomination":"Episcopal","Name":"St. Barnabas' Church Grounds","Notes":"","Removed To":"","State":"Pennsylvania","Telephone":"","Zip":"","description":"Episcopal","id":"marker-huupwo3v12","marker-color":"#1087bf","marker-size":"medium","marker-symbol":"cemetery","title":"St. Barnabas' Church Grounds"},"type":"Feature"},{"geometry":{"coordinates":[-75.22713840007782,40.02913633086198],"type":"Point"},"properties":{"Address":"Dupont & Smith Sts.","City":"Philadelphia","Date Closed":"","Date Established":"","Denomination":"Episcopal","Name":"St. David's Churchyard","Notes":"","Removed To":"","State":"Pennsylvania","Telephone":"215-482-2345","Zip":"","description":"Episcopal","id":"marker-huupwo3v13","marker-color":"#1087bf","marker-size":"medium","marker-symbol":"cemetery","title":"St. David's Churchyard"},"type":"Feature"},{"geometry":{"coordinates":[-75.03742,40.081298],"type":"Point"},"properties":{"Address":"1946 Welsh Rd","City":"Philadelphia","Date Closed":"","Date Established":"","Denomination":"Episcopal","Name":"St. Luke's P.E. Burial Grounds","Notes":"","Removed To":"","State":"Pennsylvania","Telephone":"","Zip":"19115","description":"Episcopal","id":"marker-huupwo3v16","marker-color":"","marker-size":"medium","marker-symbol":"cemetery","title":"St. Luke's P.E. Burial Grounds"},"type":"Feature"},{"geometry":{"coordinates":[-75.23000149,39.9607042],"type":"Point"},"properties":{"Address":"5441 Market St.","City":"Philadelphia","Date Closed":"","Date Established":"","Denomination":"Jewish","Name":"Beth El Emeth Cemetery","Notes":"","Removed To":"","State":"Pennsylvania","Telephone":"","Zip":"","description":"Jewish","id":"marker-huupwo3w1h","marker-color":"","marker-size":"medium","marker-symbol":"cemetery","title":"Beth El Emeth Cemetery"},"type":"Feature"},{"geometry":{"coordinates":[-75.28684353,39.91317334],"type":"Point"},"properties":{"Address":"1201 Macdade Blvd.","City":"Collingdale","Date Closed":"","Date Established":"","Denomination":"Jewish","Name":"Har Zion Cemetery","Notes":"","Removed To":"","State":"Pennsylvania","Telephone":"215-726-1146","Zip":"19023-4111","description":"Jewish","id":"marker-huupwo3w1m","marker-color":"#f1f075","marker-size":"medium","marker-symbol":"cemetery","title":"Har Zion Cemetery"},"type":"Feature"},{"geometry":{"coordinates":[-74.9477329,40.13863317],"type":"Point"},"properties":{"Address":"3594 Bristol Rd.","City":"Bensalem","Date Closed":"","Date Established":"","Denomination":"Jewish","Name":"King David Memorial Park","Notes":"","Removed To":"","State":"Pennsylvania","Telephone":"215-355-9917","Zip":"19020-1602","description":"Jewish","id":"marker-huupwo3w1p","marker-color":"#f1f075","marker-size":"medium","marker-symbol":"cemetery","title":"King David Memorial Park"},"type":"Feature"},{"geometry":{"coordinates":[-75.23078509,39.9607872],"type":"Point"},"properties":{"Address":"55th & Market Sts.","City":"Philadelphia","Date Closed":"","Date Established":"","Denomination":"Jewish","Name":"Mikveh Israel Beth-El-Emuth","Notes":"","Removed To":"","State":"Pennsylvania","Telephone":"","Zip":"","description":"Jewish","id":"marker-huupwo3w1q","marker-color":"","marker-size":"medium","marker-symbol":"cemetery","title":"Mikveh Israel Beth-El-Emuth"},"type":"Feature"},{"geometry":{"coordinates":[-75.09104917,40.07746813],"type":"Point"},"properties":{"Address":"600 Church Rd.","City":"Jenkintown","Date Closed":"","Date Established":"","Denomination":"Jewish","Name":"Montefiore Cemetery","Notes":"","Removed To":"","State":"Pennsylvania","Telephone":"215-663-1250","Zip":"19046-4398","description":"Jewish","id":"marker-huupwo3w1s","marker-color":"","marker-size":"medium","marker-symbol":"cemetery","title":"Montefiore Cemetery"},"type":"Feature"},{"geometry":{"coordinates":[-75.29254937,39.91156552],"type":"Point"},"properties":{"Address":"141 N. Bartram Ave.","City":"Glenolden","Date Closed":"","Date Established":"","Denomination":"Jewish","Name":"Mount Jacob Cemetery","Notes":"","Removed To":"","State":"Pennsylvania","Telephone":"215-726-8633","Zip":"19036-1207","description":"Jewish","id":"marker-huupwo3w1u","marker-color":"#f1f075","marker-size":"medium","marker-symbol":"cemetery","title":"Mount Jacob Cemetery"},"type":"Feature"},{"geometry":{"coordinates":[-75.28951342,39.91301434],"type":"Point"},"properties":{"Address":"1200 Bartram Ave.","City":"Collingdale","Date Closed":"","Date Established":"","Denomination":"Jewish","Name":"Mount Lebanon Cemetery","Notes":"","Removed To":"","State":"Pennsylvania","Telephone":"610-583-3151","Zip":"19023-4198","description":"Jewish","id":"marker-huupwo3w1v","marker-color":"#f1f075","marker-size":"medium","marker-symbol":"cemetery","title":"Mount Lebanon Cemetery"},"type":"Feature"},{"geometry":{"coordinates":[-75.317525,39.930288],"type":"Point"},"properties":{"Address":"Springfield Rd. & West Ave.","City":"Springfield","Date Closed":"","Date Established":"","Denomination":"Jewish","Name":"Mount Sharon Cemetery","Notes":"","Removed To":"","State":"Pennsylvania","Telephone":"610-543-8900","Zip":"19064","description":"Jewish","id":"marker-huupwo3w1w","marker-color":"#f1f075","marker-size":"medium","marker-symbol":"cemetery","title":"Mount Sharon Cemetery"},"type":"Feature"},{"geometry":{"coordinates":[-75.04092424,40.06691528],"type":"Point"},"properties":{"Address":"Roosevelt Blvd. & City Lane","City":"Trevose","Date Closed":"","Date Established":"1928","Denomination":"Jewish","Name":"Roosevelt Memorial Park","Notes":"","Removed To":"","State":"Pennsylvania","Telephone":"215-673-7500","Zip":"19053","description":"Jewish","id":"marker-huupwo3w1z","marker-color":"","marker-size":"medium","marker-symbol":"cemetery","title":"Roosevelt Memorial Park"},"type":"Feature"},{"geometry":{"coordinates":[-75.02450331,40.12929777],"type":"Point"},"properties":{"Address":"Byberry Rd. & Philmont Ave.","City":"Philadelphia","Date Closed":"","Date Established":"","Denomination":"Jewish","Name":"Shalom Memorial Park","Notes":"","Removed To":"","State":"Pennsylvania","Telephone":"215-673-4600","Zip":"19116","description":"Jewish","id":"marker-huupwo3w20","marker-color":"","marker-size":"medium","marker-symbol":"cemetery","title":"Shalom Memorial Park"},"type":"Feature"},{"geometry":{"coordinates":[-75.02899914,40.05751558],"type":"Point"},"properties":{"Address":"Ashton & Welch Rds.","City":"Philadelphia","Date Closed":"","Date Established":"","Denomination":"Methodist/Methodist Episcopal","Name":"African M. E. Cemetery","Notes":"","Removed To":"","State":"Pennsylvania","Telephone":"","Zip":"","description":"Methodist/Methodist Episcopal","id":"marker-huupwo3w29","marker-color":"","marker-size":"medium","marker-symbol":"cemetery","title":"African M. E. Cemetery"},"type":"Feature"},{"geometry":{"coordinates":[-75.038295,40.084441],"type":"Point"},"properties":{"Address":"Bustleton Pike below Welch Rd.","City":"Philadelphia","Date Closed":"","Date Established":"","Denomination":"Methodist/Methodist Episcopal","Name":"Bustleton M. E. Church Ground","Notes":"","Removed To":"","State":"Pennsylvania","Telephone":"","Zip":"","description":"Methodist/Methodist Episcopal","id":"marker-huupwo3w2a","marker-color":"","marker-size":"medium","marker-symbol":"cemetery","title":"Bustleton M. E. Church Ground"},"type":"Feature"},{"geometry":{"coordinates":[-75.17093271017075,40.04231027717392],"type":"Point"},"properties":{"Address":"Center & Morton Sts.","City":"Philadelphia","Date Closed":"","Date Established":"","Denomination":"Methodist/Methodist Episcopal","Name":"Colored Methodist Grounds","Notes":"","Removed To":"","State":"Pennsylvania","Telephone":"","Zip":"","description":"Methodist/Methodist Episcopal","id":"marker-huupwo3w2c","marker-color":"#1087bf","marker-size":"medium","marker-symbol":"cemetery","title":"Colored Methodist Grounds"},"type":"Feature"},{"geometry":{"coordinates":[-75.127408,39.984593],"type":"Point"},"properties":{"Address":"Cumberland St.","City":"Philadelphia","Date Closed":"","Date Established":"","Denomination":"Methodist/Methodist Episcopal","Name":"Cumberland Methodist Episcopal","Notes":"","Removed To":"","State":"Pennsylvania","Telephone":"","Zip":"","description":"Methodist/Methodist Episcopal","id":"marker-huupwo3w2d","marker-color":"#1087bf","marker-size":"medium","marker-symbol":"cemetery","title":"Cumberland Methodist Episcopal"},"type":"Feature"},{"geometry":{"coordinates":[-75.01482378,40.04962075],"type":"Point"},"properties":{"Address":"Frankford Ave. above Hickory St.","City":"Philadelphia","Date Closed":"","Date Established":"","Denomination":"Methodist/Methodist Episcopal","Name":"Emanual Church Grounds","Notes":"","Removed To":"","State":"Pennsylvania","Telephone":"","Zip":"","description":"Methodist/Methodist Episcopal","id":"marker-huupwo3w2f","marker-color":"","marker-size":"medium","marker-symbol":"cemetery","title":"Emanual Church Grounds"},"type":"Feature"},{"geometry":{"coordinates":[-75.13233304023743,39.970211618351385],"type":"Point"},"properties":{"Address":"Marlborough north of E. Girard Ave.","City":"Philadelphia","Date Closed":"","Date Established":"","Denomination":"Methodist/Methodist Episcopal","Name":"Emanual Church Grounds","Notes":"","Removed To":"","State":"Pennsylvania","Telephone":"","Zip":"","description":"Methodist/Methodist Episcopal","id":"marker-huupwo3w2g","marker-color":"#1087bf","marker-size":"medium","marker-symbol":"cemetery","title":"Emanual Church Grounds"},"type":"Feature"},{"geometry":{"coordinates":[-75.57094665,39.99835325],"type":"Point"},"properties":{"Address":"Boot Rd.","City":"West Chester","Date Closed":"","Date Established":"","Denomination":"Methodist/Methodist Episcopal","Name":"Grove Methodist Episcopal Cemetery","Notes":"","Removed To":"","State":"Pennsylvania","Telephone":"610-696-6337","Zip":"19380","description":"Methodist/Methodist Episcopal","id":"marker-huupwo3w2h","marker-color":"#f1f075","marker-size":"medium","marker-symbol":"cemetery","title":"Grove Methodist Episcopal Cemetery"},"type":"Feature"},{"geometry":{"coordinates":[-75.00853778,40.12452372],"type":"Point"},"properties":{"Address":"Cemetery Lane, Somerton","City":"Philadelphia","Date Closed":"","Date Established":"","Denomination":"Methodist/Methodist Episcopal","Name":"Methodist Church Yard","Notes":"","Removed To":"","State":"Pennsylvania","Telephone":"","Zip":"","description":"Methodist/Methodist Episcopal","id":"marker-huupwo3w2j","marker-color":"","marker-size":"medium","marker-symbol":"cemetery","title":"Methodist Church Yard"},"type":"Feature"},{"geometry":{"coordinates":[-75.15080541372299,39.93143636037775],"type":"Point"},"properties":{"Address":"4th & Wharton St.","City":"Philadelphia","Date Closed":"","Date Established":"","Denomination":"Methodist/Methodist Episcopal","Name":"Wharton St. M.E. Grounds","Notes":"","Removed To":"Mount Moriah","State":"Pennsylvania","Telephone":"","Zip":"","description":"Methodist/Methodist Episcopal","id":"marker-huupwo3w2p","marker-color":"#1087bf","marker-size":"medium","marker-symbol":"cemetery","title":"Wharton St. M.E. Grounds"},"type":"Feature"},{"geometry":{"coordinates":[-75.14879107475281,39.943502266498285],"type":"Point"},"properties":{"Address":"Pine St. above 4th St.","City":"Philadelphia","Date Closed":"","Date Established":"","Denomination":"Presbyterian","Name":"First Presbyterian Church Grounds","Notes":"","Removed To":"","State":"Pennsylvania","Telephone":"","Zip":"","description":"Presbyterian","id":"marker-huupwo3w2q","marker-color":"#cccccc","marker-size":"medium","marker-symbol":"cemetery","title":"First Presbyterian Church Grounds"},"type":"Feature"},{"geometry":{"coordinates":[-75.22789478302002,40.02841543823252],"type":"Point"},"properties":{"Address":"Dupont & Baker Sts.","City":"Philadelphia","Date Closed":"","Date Established":"","Denomination":"Presbyterian","Name":"First Presbyterian Church Grounds","Notes":"","Removed To":"","State":"Pennsylvania","Telephone":"","Zip":"","description":"Presbyterian","id":"marker-huupwo3w2s","marker-color":"#1087bf","marker-size":"medium","marker-symbol":"cemetery","title":"First Presbyterian Church Grounds"},"type":"Feature"},{"geometry":{"coordinates":[-75.14761626720428,39.9602474601114],"type":"Point"},"properties":{"Address":"5th & Buttonwood Sts.","City":"Philadelphia","Date Closed":"","Date Established":"","Denomination":"Presbyterian","Name":"First Presbyterian Church Grounds of Northern Liberties","Notes":"","Removed To":"","State":"Pennsylvania","Telephone":"","Zip":"","description":"Presbyterian","id":"marker-huupwo3w2u","marker-color":"#1087bf","marker-size":"medium","marker-symbol":"cemetery","title":"First Presbyterian Church Grounds of Northern Liberties"},"type":"Feature"},{"geometry":{"coordinates":[-75.28504696,39.95539201],"type":"Point"},"properties":{"Address":"Lansdowne Ave. & School Lane","City":"Drexel Hill","Date Closed":"","Date Established":"1895","Denomination":"Non Sectarian, Public, Private or Undetermined Religious Denomination","Name":"Arlington Cemetery","Notes":"Link to SEARCHABLE DATABASE of Arlington Cemetery burials <A HREF=http://www.webcemeteries.com/arlington/searchrecs.asp\"> Arlington Burials</A>","Removed To":"","State":"Pennsylvania","Telephone":"610-259-3184","Zip":"19026","description":"Non Sectarian, Public, Private or Undetermined Religious Denomination","id":"marker-huupwo3x38","marker-color":"#f1f075","marker-size":"medium","marker-symbol":"cemetery","title":"Arlington Cemetery"},"type":"Feature"},{"geometry":{"coordinates":[-75.14831900596619,39.93419029723112],"type":"Point"},"properties":{"Address":"Washington & Moyamensing Ave.","City":"Philadelphia","Date Closed":"","Date Established":"","Denomination":"Non Sectarian, Public, Private or Undetermined Religious Denomination","Name":"Bethel Church Grounds","Notes":"","Removed To":"","State":"Pennsylvania","Telephone":"","Zip":"","description":"Non Sectarian, Public, Private or Undetermined Religious Denomination","id":"marker-huupwo3y3c","marker-color":"#1087bf","marker-size":"medium","marker-symbol":"cemetery","title":"Bethel Church Grounds"},"type":"Feature"},{"geometry":{"coordinates":[-74.96348456,40.06484031],"type":"Point"},"properties":{"Address":"704 State Rd.","City":"Croydon","Date Closed":"","Date Established":"","Denomination":"Non Sectarian, Public, Private or Undetermined Religious Denomination","Name":"Bristol Cemetery","Notes":"","Removed To":"","State":"Pennsylvania","Telephone":"215-785-1710","Zip":"19021-7447","description":"Non Sectarian, Public, Private or Undetermined Religious Denomination","id":"marker-huupwo3y3d","marker-color":"#f1f075","marker-size":"medium","marker-symbol":"cemetery","title":"Bristol Cemetery"},"type":"Feature"},{"geometry":{"coordinates":[-75.58111937,39.96373599],"type":"Point"},"properties":{"Address":"301 S. Concord Rd.","City":"West Chester","Date Closed":"","Date Established":"1938","Denomination":"Non Sectarian, Public, Private or Undetermined Religious Denomination","Name":"Chester County Memorial Park","Notes":"","Removed To":"","State":"Pennsylvania","Telephone":"610-436-0533","Zip":"19382-4826","description":"Non Sectarian, Public, Private or Undetermined Religious Denomination","id":"marker-huupwo3y3g","marker-color":"#f1f075","marker-size":"medium","marker-symbol":"cemetery","title":"Chester County Memorial Park"},"type":"Feature"},{"geometry":{"coordinates":[-75.21827659,39.99532024],"type":"Point"},"properties":{"Address":"Monument Rd. & Belmont Ave.","City":"Philadelphia","Date Closed":"","Date Established":"","Denomination":"Non Sectarian, Public, Private or Undetermined Religious Denomination","Name":"Christ Church Hospital Grounds","Notes":"","Removed To":"","State":"Pennsylvania","Telephone":"","Zip":"","description":"Non Sectarian, Public, Private or Undetermined Religious Denomination","id":"marker-huupwo3y3h","marker-color":"","marker-size":"medium","marker-symbol":"cemetery","title":"Christ Church Hospital Grounds"},"type":"Feature"},{"geometry":{"coordinates":[-75.12442588806152,40.0080424514019],"type":"Point"},"properties":{"Address":"Nicetown Lane & B St.","City":"Philadelphia","Date Closed":"","Date Established":"","Denomination":"Non Sectarian, Public, Private or Undetermined Religious Denomination","Name":"City Burial Ground (Potter's Field)","Notes":"","Removed To":"","State":"Pennsylvania","Telephone":"","Zip":"","description":"Non Sectarian, Public, Private or Undetermined Religious Denomination","id":"marker-huupwo3y3j","marker-color":"#cccccc","marker-size":"medium","marker-symbol":"cemetery","title":"City Burial Ground (Potter's Field)"},"type":"Feature"},{"geometry":{"coordinates":[-75.27712548,39.91178233],"type":"Point"},"properties":{"Address":"Collingdale","City":"Collingdale","Date Closed":"","Date Established":"6/20/1902","Denomination":"Non Sectarian, Public, Private or Undetermined Religious Denomination","Name":"Eden Cemetery","Notes":"Business Office: 5410 Haverford Ave. Philadelphia 19139-1428","Removed To":"","State":"Pennsylvania","Telephone":"215-747-4700","Zip":"","description":"Non Sectarian, Public, Private or Undetermined Religious Denomination","id":"marker-huupwo3y3l","marker-color":"#f1f075","marker-size":"medium","marker-symbol":"cemetery","title":"Eden Cemetery"},"type":"Feature"},{"geometry":{"coordinates":[-75.2528946,39.94132998],"type":"Point"},"properties":{"Address":"6500 Baltimore Ave.","City":"Lansdowne","Date Closed":"","Date Established":"","Denomination":"Non Sectarian, Public, Private or Undetermined Religious Denomination","Name":"Fernwood Cemetery","Notes":"","Removed To":"","State":"Pennsylvania","Telephone":"215-729-8040","Zip":"19050-2750","description":"Non Sectarian, Public, Private or Undetermined Religious Denomination","id":"marker-huupwo3z3n","marker-color":"#f1f075","marker-size":"medium","marker-symbol":"cemetery","title":"Fernwood Cemetery"},"type":"Feature"},{"geometry":{"coordinates":[-75.0248718,40.12922923],"type":"Point"},"properties":{"Address":"101 Byberry Rd.","City":"Philadelphia","Date Closed":"","Date Established":"","Denomination":"Non Sectarian, Public, Private or Undetermined Religious Denomination","Name":"Forest Hills Cemetery","Notes":"","Removed To":"","State":"Pennsylvania","Telephone":"215-673-5800","Zip":"19116-1901","description":"Non Sectarian, Public, Private or Undetermined Religious Denomination","id":"marker-huupwo3z3o","marker-color":"","marker-size":"medium","marker-symbol":"cemetery","title":"Forest Hills Cemetery"},"type":"Feature"},{"geometry":{"coordinates":[-75.42672949,39.9804777],"type":"Point"},"properties":{"Address":"2321 W. Chester Pike","City":"Broomall","Date Closed":"","Date Established":"","Denomination":"Non Sectarian, Public, Private or Undetermined Religious Denomination","Name":"Glenwood Memorial Gardens","Notes":"","Removed To":"","State":"Pennsylvania","Telephone":"610-356-1144","Zip":"19008-2596","description":"Non Sectarian, Public, Private or Undetermined Religious Denomination","id":"marker-huupwo3z3r","marker-color":"#f1f075","marker-size":"medium","marker-symbol":"cemetery","title":"Glenwood Memorial Gardens"},"type":"Feature"},{"geometry":{"coordinates":[-75.10501721,40.16947753],"type":"Point"},"properties":{"Address":"36 Fulmore Ave.","City":"Hatboro","Date Closed":"","Date Established":"","Denomination":"Non Sectarian, Public, Private or Undetermined Religious Denomination","Name":"Hatboro Cemetery Company","Notes":"","Removed To":"","State":"Pennsylvania","Telephone":"215-675-1653","Zip":"19040-3414","description":"Non Sectarian, Public, Private or Undetermined Religious Denomination","id":"marker-huupwo3z3y","marker-color":"#f1f075","marker-size":"medium","marker-symbol":"cemetery","title":"Hatboro Cemetery Company"},"type":"Feature"},{"geometry":{"coordinates":[-75.219625,39.996757],"type":"Point"},"properties":{"Address":"Belmont Ave.","City":"Philadelphia","Date Closed":"","Date Established":"","Denomination":"Non Sectarian, Public, Private or Undetermined Religious Denomination","Name":"Hayes Mechanic Home Ground","Notes":"","Removed To":"","State":"Pennsylvania","Telephone":"","Zip":"","description":"Non Sectarian, Public, Private or Undetermined Religious Denomination","id":"marker-huupwo3z3z","marker-color":"","marker-size":"medium","marker-symbol":"cemetery","title":"Hayes Mechanic Home Ground"},"type":"Feature"},{"geometry":{"coordinates":[-75.1213257,40.11430238],"type":"Point"},"properties":{"Address":"2556 Susquehanna Rd.","City":"Roslyn","Date Closed":"","Date Established":"","Denomination":"Non Sectarian, Public, Private or Undetermined Religious Denomination","Name":"Hillside Cemetery","Notes":"","Removed To":"","State":"Pennsylvania","Telephone":"215-884-0696","Zip":"19001","description":"Non Sectarian, Public, Private or Undetermined Religious Denomination","id":"marker-huupwo3z40","marker-color":"#f1f075","marker-size":"medium","marker-symbol":"cemetery","title":"Hillside Cemetery"},"type":"Feature"},{"geometry":{"coordinates":[-75.2161885,39.96247918],"type":"Point"},"properties":{"Address":"48th & Haverford Ave.","City":"Philadelphia","Date Closed":"","Date Established":"","Denomination":"Non Sectarian, Public, Private or Undetermined Religious Denomination","Name":"Holy Comforter Cemetery","Notes":"","Removed To":"","State":"Pennsylvania","Telephone":"","Zip":"","description":"Non Sectarian, Public, Private or Undetermined Religious Denomination","id":"marker-huupwo3z41","marker-color":"","marker-size":"medium","marker-symbol":"cemetery","title":"Holy Comforter Cemetery"},"type":"Feature"},{"geometry":{"coordinates":[-75.17519742250443,39.935467477532725],"type":"Point"},"properties":{"Address":"19th & Wharton Sts.","City":"Philadelphia","Date Closed":"","Date Established":"","Denomination":"Non Sectarian, Public, Private or Undetermined Religious Denomination","Name":"Holy Comforter Memorial","Notes":"","Removed To":"","State":"Pennsylvania","Telephone":"","Zip":"","description":"Non Sectarian, Public, Private or Undetermined Religious Denomination","id":"marker-huupwo3z42","marker-color":"#1087bf","marker-size":"medium","marker-symbol":"cemetery","title":"Holy Comforter Memorial"},"type":"Feature"},{"geometry":{"coordinates":[-75.09168899,40.09684748],"type":"Point"},"properties":{"Address":"Huntingdon Pike","City":"Rockledge","Date Closed":"","Date Established":"1904","Denomination":"Non Sectarian, Public, Private or Undetermined Religious Denomination","Name":"Lawnview Cemetery","Notes":"","Removed To":"","State":"Pennsylvania","Telephone":"215-379-1600","Zip":"19046","description":"Non Sectarian, Public, Private or Undetermined Religious Denomination","id":"marker-huupwo3z4a","marker-color":"","marker-size":"medium","marker-symbol":"cemetery","title":"Lawnview Cemetery"},"type":"Feature"},{"geometry":{"coordinates":[-75.21626472473145,39.938665465352955],"type":"Point"},"properties":{"Address":"52nd abv. Woodland Av.","City":"Philadelphia","Date Closed":"","Date Established":"","Denomination":"Non Sectarian, Public, Private or Undetermined Religious Denomination","Name":"Leaches Family Ground","Notes":"","Removed To":"","State":"Pennsylvania","Telephone":"","Zip":"","description":"Non Sectarian, Public, Private or Undetermined Religious Denomination","id":"marker-huupwo3z4b","marker-color":"#cccccc","marker-size":"medium","marker-symbol":"cemetery","title":"Leaches Family Ground"},"type":"Feature"},{"geometry":{"coordinates":[-75.24297542,40.01665705],"type":"Point"},"properties":{"Address":"Bryn Mawr & Rockhill Rds.","City":"Bala Cynwyd","Date Closed":"","Date Established":"","Denomination":"Non Sectarian, Public, Private or Undetermined Religious Denomination","Name":"Merion Memorial Park","Notes":"","Removed To":"","State":"Pennsylvania","Telephone":"610-664-6699","Zip":"19004","description":"Non Sectarian, Public, Private or Undetermined Religious Denomination","id":"marker-huupwo3z4g","marker-color":"#f1f075","marker-size":"medium","marker-symbol":"cemetery","title":"Merion Memorial Park"},"type":"Feature"},{"geometry":{"coordinates":[-75.261343,39.900478],"type":"Point"},"properties":{"Address":"Lincoln Memorial Park, 84 Hook Rd.","City":"Sharon Hill","Date Closed":"","Date Established":"","Denomination":"Non Sectarian, Public, Private or Undetermined Religious Denomination","Name":"Mount Lawn Cemetery","Notes":"","Removed To":"","State":"Pennsylvania","Telephone":"215-729-8222","Zip":"19079-1012","description":"Non Sectarian, Public, Private or Undetermined Religious Denomination","id":"marker-huupwo3z4i","marker-color":"#f1f075","marker-size":"medium","marker-symbol":"cemetery","title":"Mount Lawn Cemetery"},"type":"Feature"},{"geometry":{"coordinates":[-75.02502858638763,40.042815416029775],"type":"Point"},"properties":{"Address":"P. R. R. (Bustleton Branch) to Erdrich","City":"Philadelphia","Date Closed":"","Date Established":"","Denomination":"Non Sectarian, Public, Private or Undetermined Religious Denomination","Name":"Mount Zion Burying Ground","Notes":"","Removed To":"","State":"Pennsylvania","Telephone":"","Zip":"","description":"Non Sectarian, Public, Private or Undetermined Religious Denomination","id":"marker-huupwo3z4m","marker-color":"#1087bf","marker-size":"medium","marker-symbol":"cemetery","title":"Mount Zion Burying Ground"},"type":"Feature"},{"geometry":{"coordinates":[-75.27300762,39.92179066],"type":"Point"},"properties":{"Address":"1400 Springfield Rd.","City":"Collingdale","Date Closed":"","Date Established":"","Denomination":"Non Sectarian, Public, Private or Undetermined Religious Denomination","Name":"Mount Zion Cemetery","Notes":"","Removed To":"","State":"Pennsylvania","Telephone":"610-461-1166","Zip":"19023-1099","description":"Non Sectarian, Public, Private or Undetermined Religious Denomination","id":"marker-huupwo3z4n","marker-color":"#f1f075","marker-size":"medium","marker-symbol":"cemetery","title":"Mount Zion Cemetery"},"type":"Feature"},{"geometry":{"coordinates":[-75.60618402,39.95845546],"type":"Point"},"properties":{"Address":"120 W. Market St.","City":"West Chester","Date Closed":"","Date Established":"","Denomination":"Non Sectarian, Public, Private or Undetermined Religious Denomination","Name":"Oaklands Cemetery","Notes":"","Removed To":"","State":"Pennsylvania","Telephone":"610-692-3966","Zip":"19382-2902","description":"Non Sectarian, Public, Private or Undetermined Religious Denomination","id":"marker-huupwo3z4u","marker-color":"#f1f075","marker-size":"medium","marker-symbol":"cemetery","title":"Oaklands Cemetery"},"type":"Feature"},{"geometry":{"coordinates":[-75.22082974,39.9752434],"type":"Point"},"properties":{"Address":"46th & Merion Ave.","City":"Philadelphia","Date Closed":"1923","Date Established":"","Denomination":"Non Sectarian, Public, Private or Undetermined Religious Denomination","Name":"Olive Cemetery","Notes":"","Removed To":"Eden & Mount Zion","State":"Pennsylvania","Telephone":"","Zip":"","description":"Non Sectarian, Public, Private or Undetermined Religious Denomination","id":"marker-huupwo3z4y","marker-color":"","marker-size":"medium","marker-symbol":"cemetery","title":"Olive Cemetery"},"type":"Feature"},{"geometry":{"coordinates":[-75.00442267,40.14594208],"type":"Point"},"properties":{"Address":"Bustleton Pike","City":"Philadelphia","Date Closed":"","Date Established":"","Denomination":"Non Sectarian, Public, Private or Undetermined Religious Denomination","Name":"Pennypack Cemetery","Notes":"","Removed To":"","State":"Pennsylvania","Telephone":"","Zip":"","description":"Non Sectarian, Public, Private or Undetermined Religious Denomination","id":"marker-huupwo3z51","marker-color":"","marker-size":"medium","marker-symbol":"cemetery","title":"Pennypack Cemetery"},"type":"Feature"},{"geometry":{"coordinates":[-75.57996869,40.049662],"type":"Point"},"properties":{"Address":"124 Phoenixville Pike","City":"Frazer","Date Closed":"","Date Established":"","Denomination":"Non Sectarian, Public, Private or Undetermined Religious Denomination","Name":"Philadelphia Memorial Park","Notes":"","Removed To":"","State":"Pennsylvania","Telephone":"610-644-9150","Zip":"19355-1023","description":"Non Sectarian, Public, Private or Undetermined Religious Denomination","id":"marker-huupwo3z53","marker-color":"#f1f075","marker-size":"medium","marker-symbol":"cemetery","title":"Philadelphia Memorial Park"},"type":"Feature"},{"geometry":{"coordinates":[-75.0688765,40.11737375],"type":"Point"},"properties":{"Address":"Huntingdon Pike","City":"Philadelphia","Date Closed":"","Date Established":"1945","Denomination":"Non Sectarian, Public, Private or Undetermined Religious Denomination","Name":"Pine Grove Cemetery & Memorial Park (Formerly Delmont)","Notes":"","Removed To":"","State":"Pennsylvania","Telephone":"215-379-1600","Zip":"19111","description":"Non Sectarian, Public, Private or Undetermined Religious Denomination","id":"marker-huupwo4056","marker-color":"","marker-size":"medium","marker-symbol":"cemetery","title":"Pine Grove Cemetery & Memorial Park (Formerly Delmont)"},"type":"Feature"},{"geometry":{"coordinates":[-75.16802315,40.00934886],"type":"Point"},"properties":{"Address":"24th & Hunting Park Ave.","City":"Philadelphia","Date Closed":"","Date Established":"","Denomination":"Non Sectarian, Public, Private or Undetermined Religious Denomination","Name":"Private Cemetery","Notes":"","Removed To":"","State":"Pennsylvania","Telephone":"","Zip":"","description":"Non Sectarian, Public, Private or Undetermined Religious Denomination","id":"marker-huupwo4057","marker-color":"#cccccc","marker-size":"medium","marker-symbol":"cemetery","title":"Private Cemetery"},"type":"Feature"},{"geometry":{"coordinates":[-74.95142092,40.1290429],"type":"Point"},"properties":{"Address":"Richlieu Rd.","City":"Bensalem","Date Closed":"","Date Established":"1930","Denomination":"Non Sectarian, Public, Private or Undetermined Religious Denomination","Name":"Rosedale Memorial Park (Formerly Evergreen Memorial Park)","Notes":"(Everegreen Established 1930, Rosedale Established 1960))","Removed To":"","State":"Pennsylvania","Telephone":"215-357-0308","Zip":"19020","description":"Non Sectarian, Public, Private or Undetermined Religious Denomination","id":"marker-huupwo405a","marker-color":"#f1f075","marker-size":"medium","marker-symbol":"cemetery","title":"Rosedale Memorial Park (Formerly Evergreen Memorial Park)"},"type":"Feature"},{"geometry":{"coordinates":[-75.17767578363419,40.036096352408116],"type":"Point"},"properties":{"Address":"McCallum & Rittenhouse Sts.","City":"Philadelphia","Date Closed":"","Date Established":"","Denomination":"Non Sectarian, Public, Private or Undetermined Religious Denomination","Name":"St. Barnabas' Church Grounds","Notes":"","Removed To":"","State":"Pennsylvania","Telephone":"","Zip":"","description":"Non Sectarian, Public, Private or Undetermined Religious Denomination","id":"marker-huupwo405b","marker-color":"#1087bf","marker-size":"medium","marker-symbol":"cemetery","title":"St. Barnabas' Church Grounds"},"type":"Feature"},{"geometry":{"coordinates":[-75.23619890213011,40.052781902585984],"type":"Point"},"properties":{"Address":"Ridge Ave. & Shawmont St.","City":"Philadelphia","Date Closed":"","Date Established":"","Denomination":"Non Sectarian, Public, Private or Undetermined Religious Denomination","Name":"Shawmont Cemetery","Notes":"","Removed To":"","State":"Pennsylvania","Telephone":"","Zip":"","description":"Non Sectarian, Public, Private or Undetermined Religious Denomination","id":"marker-huupwo405c","marker-color":"#cccccc","marker-size":"medium","marker-symbol":"cemetery","title":"Shawmont Cemetery"},"type":"Feature"},{"geometry":{"coordinates":[-75.15375316143036,40.02461162789655],"type":"Point"},"properties":{"Address":"18th & Courtland St.","City":"Philadelphia","Date Closed":"","Date Established":"","Denomination":"Non Sectarian, Public, Private or Undetermined Religious Denomination","Name":"Stenton Family Ground","Notes":"","Removed To":"","State":"Pennsylvania","Telephone":"","Zip":"","description":"Non Sectarian, Public, Private or Undetermined Religious Denomination","id":"marker-huupwo405e","marker-color":"#1087bf","marker-size":"medium","marker-symbol":"cemetery","title":"Stenton Family Ground"},"type":"Feature"},{"geometry":{"coordinates":[-75.20993189,40.07003243],"type":"Point"},"properties":{"Address":"Gravers Lane & Seminole St.","City":"Philadelphia","Date Closed":"","Date Established":"","Denomination":"Non Sectarian, Public, Private or Undetermined Religious Denomination","Name":"Union Burial Ground","Notes":"","Removed To":"","State":"Pennsylvania","Telephone":"","Zip":"","description":"Non Sectarian, Public, Private or Undetermined Religious Denomination","id":"marker-huupwo405f","marker-color":"#cccccc","marker-size":"medium","marker-symbol":"cemetery","title":"Union Burial Ground"},"type":"Feature"},{"geometry":{"coordinates":[-75.219368,39.999526],"type":"Point"},"properties":{"Address":"Belmont & City Line Ave.","City":"Bala Cynwyd","Date Closed":"","Date Established":"1870","Denomination":"Non Sectarian, Public, Private or Undetermined Religious Denomination","Name":"West Laurel Hill Cemetery","Notes":"","Removed To":"","State":"Pennsylvania","Telephone":"215-483-1122","Zip":"19004","description":"Non Sectarian, Public, Private or Undetermined Religious Denomination","id":"marker-huupwo405k","marker-color":"#f1f075","marker-size":"medium","marker-symbol":"cemetery","title":"West Laurel Hill Cemetery"},"type":"Feature"},{"geometry":{"coordinates":[-75.22933796,40.01576212],"type":"Point"},"properties":{"Address":"Belmont Ave. & Levering Mill Rd.","City":"Bala Cynwyd","Date Closed":"","Date Established":"1894","Denomination":"Non Sectarian, Public, Private or Undetermined Religious Denomination","Name":"Westminster Cemetery","Notes":"","Removed To":"","State":"Pennsylvania","Telephone":"610-667-0550","Zip":"19004","description":"Non Sectarian, Public, Private or Undetermined Religious Denomination","id":"marker-huupwo405l","marker-color":"#f1f075","marker-size":"medium","marker-symbol":"cemetery","title":"Westminster Cemetery"},"type":"Feature"},{"geometry":{"coordinates":[-75.05556177,40.04515486],"type":"Point"},"properties":{"Address":"2602 Cottman St.","City":"Philadelphia","Date Closed":"","Date Established":"","Denomination":"Non Sectarian, Public, Private or Undetermined Religious Denomination","Name":"White Chapel Gardens","Notes":"","Removed To":"","State":"Pennsylvania","Telephone":"","Zip":"","description":"Non Sectarian, Public, Private or Undetermined Religious Denomination","id":"marker-huupwo405m","marker-color":"","marker-size":"medium","marker-symbol":"cemetery","title":"White Chapel Gardens"},"type":"Feature"},{"geometry":{"coordinates":[-75.00600306,40.15279943],"type":"Point"},"properties":{"Address":"140 W. Street Rd.","City":"Feasterville-Trevose","Date Closed":"","Date Established":"1929","Denomination":"Non Sectarian, Public, Private or Undetermined Religious Denomination","Name":"White Chapel Gardens Memorial Park","Notes":"","Removed To":"","State":"Pennsylvania","Telephone":"215-357-8463","Zip":"19053-7883","description":"Non Sectarian, Public, Private or Undetermined Religious Denomination","id":"marker-huupwo405n","marker-color":"#f1f075","marker-size":"medium","marker-symbol":"cemetery","title":"White Chapel Gardens Memorial Park"},"type":"Feature"},{"geometry":{"coordinates":[-75.01487792,40.12471985],"type":"Point"},"properties":{"Address":"Trevose Road & Bustelton Ave","City":"Philadelphia","Date Closed":"","Date Established":"1855","Denomination":"Non Sectarian, Public, Private or Undetermined Religious Denomination","Name":"William Penn Cemetery","Notes":"","Removed To":"","State":"Pennsylvania","Telephone":"215-673-8364","Zip":"19116","description":"Non Sectarian, Public, Private or Undetermined Religious Denomination","id":"marker-huupwo405o","marker-color":"","marker-size":"medium","marker-symbol":"cemetery","title":"William Penn Cemetery"},"type":"Feature"},{"geometry":{"coordinates":[[[-75.15405625104904,39.93471268947822],[-75.15426278114319,39.93473736932826],[-75.15467584133148,39.93378101862983],[-75.15447199344635,39.93375633843494],[-75.15438884496689,39.9341429937993],[-75.15423595905303,39.934122427079586],[-75.15419840812683,39.9342828473293],[-75.15415549278258,39.93427873399427],[-75.15405625104904,39.93471268947822]]],"type":"Polygon"},"properties":{"description":"Non Sectarian, Public, Private or Undetermined Religious Denomination","fill":"#1087bf","fill-opacity":0.2,"id":"marker-huutiow85y","stroke":"#1087bf","stroke-opacity":1,"stroke-width":4,"title":"Union Burial Ground Society"},"type":"Feature"},{"geometry":{"coordinates":[[[-75.16148328781128,39.937192969910505],[-75.15995711088179,39.936781652673154],[-75.15985250473022,39.937234101498255],[-75.16137063503265,39.93765158571518],[-75.16148328781128,39.937192969910505]]],"type":"Polygon"},"properties":{"description":"Non Sectarian, Public, Private or Undetermined Religious Denomination","fill":"#1087bf","fill-opacity":0.2,"id":"marker-huuq62be5s","stroke":"#1087bf","stroke-opacity":1,"stroke-width":4,"title":"Machpelah Cemetery"},"type":"Feature"},{"geometry":{"coordinates":[[[-75.15735536813736,39.941682336800355],[-75.15753775835037,39.94085152794148],[-75.15856772661209,39.94098314189851],[-75.15836656093597,39.941809836276946],[-75.15735536813736,39.941682336800355]]],"type":"Polygon"},"properties":{"description":"Non Sectarian, Public, Private or Undetermined Religious Denomination","fill":"#1087bf","fill-opacity":0.2,"id":"marker-huuqjk0y5u","stroke":"#1087bf","stroke-opacity":1,"stroke-width":4,"title":"Philadelphia Cemetery (Formerly Ronaldson Cemetery)"},"type":"Feature"},{"geometry":{"coordinates":[[[-75.15328377485275,39.9337727918992],[-75.15325158834457,39.93393115629043],[-75.15291631221771,39.93388590935888],[-75.15294849872589,39.93372548817879],[-75.15328377485275,39.9337727918992]]],"type":"Polygon"},"properties":{"description":"Jewish","fill":"#1087bf","fill-opacity":0.2,"id":"marker-huut4lau5w","stroke":"#1087bf","stroke-opacity":1,"stroke-width":4,"title":"Arabella Jewish Cemetery"},"type":"Feature"},{"geometry":{"coordinates":[[[-75.15409380197524,39.933709034703156],[-75.15347957611084,39.93362882395282],[-75.15326231718063,39.934618083303945],[-75.15387654304504,39.93469623623993],[-75.15409380197524,39.933709034703156]]],"type":"Polygon"},"properties":{"description":"Non Sectarian, Public, Private or Undetermined Religious Denomination","fill":"#1087bf","fill-opacity":0.2,"id":"marker-huutdicf5x","stroke":"#1087bf","stroke-opacity":1,"stroke-width":4,"title":"Union Burial Ground Society"},"type":"Feature"},{"geometry":{"coordinates":[[[-75.15967547893524,39.93655748373797],[-75.15998929738998,39.93591787842788],[-75.15958160161972,39.93580476432656],[-75.15928119421005,39.936446427296275],[-75.15967547893524,39.93655748373797]]],"type":"Polygon"},"properties":{"description":"Non Sectarian, Public, Private or Undetermined Religious Denomination","fill":"#1087bf","fill-opacity":0.2,"id":"marker-huuqf95v5t","stroke":"#1087bf","stroke-opacity":1,"stroke-width":4,"title":"Mutual Family Burial Ground"},"type":"Feature"},{"geometry":{"coordinates":[[[-75.14945894479752,39.93737806186077],[-75.14959037303925,39.93684129382581],[-75.14913439750671,39.936717898280065],[-75.14905124902725,39.93707985791665],[-75.14902174472809,39.93707368816617],[-75.14896810054779,39.93728140279364],[-75.14945894479752,39.93737806186077]]],"type":"Polygon"},"properties":{"description":"Methodist/Methodist Episcopal","fill":"#1087bf","fill-opacity":0.2,"id":"marker-huuuz9b25z","stroke":"#1087bf","stroke-opacity":1,"stroke-width":4,"title":"Ebenezer M. E. Cemetery"},"type":"Feature"},{"geometry":{"coordinates":[[[-75.16452491283417,39.93046762286344],[-75.16404747962952,39.92995342540703],[-75.16353249549866,39.92987938065514],[-75.16309797763823,39.93027428507294],[-75.16390800476074,39.93110110881903],[-75.16437470912933,39.93116692520548],[-75.16452491283417,39.93046762286344]]],"type":"Polygon"},"properties":{"description":"Non Sectarian, Public, Private or Undetermined Religious Denomination","fill":"#1087bf","fill-opacity":0.2,"id":"marker-huuv9jik61","stroke":"#1087bf","stroke-opacity":1,"stroke-width":4,"title":"Philanthropic Cemetery"},"type":"Feature"},{"geometry":{"coordinates":[[[-75.16259372234344,39.92805291808809],[-75.16345739364624,39.927814322532356],[-75.16356468200684,39.92731656016146],[-75.1631087064743,39.92659664950357],[-75.16233086585999,39.92648557689937],[-75.1621001958847,39.927427631417444],[-75.16247570514679,39.928036463248866],[-75.16259372234344,39.92805291808809]]],"type":"Polygon"},"properties":{"description":"Catholic","fill":"#1087bf","fill-opacity":0.2,"id":"marker-huuvcriq63","stroke":"#1087bf","stroke-opacity":1,"stroke-width":4,"title":"St. Mary's Cemetery (formerly Holy Cross)"},"type":"Feature"},{"geometry":{"coordinates":[[[-75.16183733940125,39.9829489064587],[-75.16035676002502,39.9811444132499],[-75.1595413684845,39.981469143334614],[-75.15949308872221,39.98143214884588],[-75.1575055718422,39.98117524212171],[-75.15727758407591,39.98233234238505],[-75.15754848718643,39.982363170720866],[-75.15752971172333,39.98247004217739],[-75.15820294618605,39.983362001275296],[-75.15866160392761,39.98341543624328],[-75.15858113765717,39.98378536949075],[-75.15894860029219,39.98422723157792],[-75.16183733940125,39.9829489064587]]],"type":"Polygon"},"properties":{"description":"Non Sectarian, Public, Private or Undetermined Religious Denomination","fill":"#1087bf","fill-opacity":0.2,"id":"marker-huuvq1ax64","stroke":"#1087bf","stroke-opacity":1,"stroke-width":4,"title":"Monument Cemetery"},"type":"Feature"},{"geometry":{"coordinates":[[[-75.17496943473816,39.98710851334427],[-75.17437934875487,39.986500207199356],[-75.17340302467346,39.98534934291836],[-75.1715362071991,39.985127388291275],[-75.17127871513367,39.98635224002077],[-75.17080664634705,39.9866317333113],[-75.17175078392029,39.98749486713714],[-75.16939580440521,39.98885941836477],[-75.16927778720856,39.98954168375694],[-75.17018437385559,39.989664984004385],[-75.17066717147827,39.99021572239233],[-75.1714289188385,39.98982938398808],[-75.17564535140991,39.98778257598895],[-75.17496943473816,39.98710851334427]]],"type":"Polygon"},"properties":{"description":"Non Sectarian, Public, Private or Undetermined Religious Denomination","fill":"#1087bf","fill-opacity":0.2,"id":"marker-huuw4kcn66","stroke":"#1087bf","stroke-opacity":1,"stroke-width":4,"title":"Odd Fellows Cemetery (Established)"},"type":"Feature"},{"geometry":{"coordinates":[[[-75.17664313316345,39.98717427584631],[-75.17730295658112,39.98684135252877],[-75.17736732959747,39.986923555967905],[-75.17922073602676,39.985704879846146],[-75.17624884843826,39.98353669236171],[-75.17437934875487,39.98457660887952],[-75.17664313316345,39.98717427584631]]],"type":"Polygon"},"properties":{"description":"Non Sectarian, Public, Private or Undetermined Religious Denomination","fill":"#1087bf","fill-opacity":0.2,"id":"marker-huvarq5a0","stroke":"#1087bf","stroke-opacity":1,"stroke-width":4,"title":"Glenwood Cemetery"},"type":"Feature"},{"geometry":{"coordinates":[[[-75.23368835449219,39.93387768264085],[-75.23314118385315,39.933984629898205],[-75.23316264152527,39.93347457224566],[-75.23401021957397,39.93246267242643],[-75.23250818252563,39.93117926577091],[-75.23536205291748,39.92916361059106],[-75.23544788360596,39.92926233794141],[-75.2354907989502,39.929229428840465],[-75.23582339286804,39.92929524702655],[-75.23593068122864,39.929064883098306],[-75.23914933204651,39.92966547314426],[-75.23911714553833,39.92991228944365],[-75.24252891540527,39.93054578053863],[-75.24263620376587,39.9309982705885],[-75.24235725402832,39.93191969562437],[-75.24039387702942,39.932915149804494],[-75.23983597755432,39.93292337663822],[-75.23770093917847,39.9322734537268],[-75.23707866668701,39.93240508418193],[-75.23609161376953,39.934214977269555],[-75.2358555793762,39.93439596394601],[-75.23524403572083,39.934609856673895],[-75.2345359325409,39.934552270236],[-75.2340316772461,39.934330150664486],[-75.23368835449219,39.93428079066181],[-75.23368835449219,39.93387768264085]]],"type":"Polygon"},"properties":{"description":"Non Sectarian, Public, Private or Undetermined Religious Denomination","fill":"#1087bf","fill-opacity":0.2,"id":"marker-huvazfa81","stroke":"#1087bf","stroke-opacity":1,"stroke-width":4,"title":"Mount Moriah Cemetery"},"type":"Feature"},{"geometry":{"coordinates":[[[-75.24068355560303,39.93759605840462],[-75.24265766143799,39.93680633177709],[-75.24245381355286,39.93622225726304],[-75.24229288101196,39.93591787842788],[-75.24178862571716,39.93556413916186],[-75.24230360984802,39.935358475957386],[-75.2419924736023,39.93443709721485],[-75.24094104766846,39.93391881622115],[-75.23943901062012,39.93445355051545],[-75.23893475532532,39.93407512360085],[-75.2388060092926,39.933589746886554],[-75.23839831352234,39.93311259354112],[-75.2379584312439,39.93315372758123],[-75.23722887039185,39.933565066622684],[-75.23738980293274,39.93369669459385],[-75.23587703704833,39.937472664219804],[-75.23738980293274,39.937958013396525],[-75.23820519447327,39.93776058363825],[-75.23923516273499,39.93724232781285],[-75.23972868919373,39.93716006462248],[-75.24044752120972,39.93728345937095],[-75.24068355560303,39.93759605840462]]],"type":"Polygon"},"properties":{"description":"Non Sectarian, Public, Private or Undetermined Religious Denomination","fill":"#1087bf","fill-opacity":0.2,"id":"marker-huvb0uf13","stroke":"#1087bf","stroke-opacity":1,"stroke-width":4,"title":"Mount Moriah Cemetery"},"type":"Feature"},{"geometry":{"coordinates":[[[-75.17977058887482,39.9238753188239],[-75.17963379621506,39.92448418224673],[-75.18015950918196,39.92567103896232],[-75.1822167634964,39.9259425526848],[-75.18279612064362,39.925708063624256],[-75.1818573474884,39.92344952260486],[-75.17977058887482,39.9238753188239]]],"type":"Polygon"},"properties":{"description":"Non Sectarian, Public, Private or Undetermined Religious Denomination","fill":"#1087bf","fill-opacity":0.2,"id":"marker-huvf1jnd4","stroke":"#1087bf","stroke-opacity":1,"stroke-width":4,"title":"American Cemetery"},"type":"Feature"},{"geometry":{"coordinates":[[[-75.1781290769577,39.92283242193545],[-75.17718225717545,39.922717229194525],[-75.17725467681885,39.92235519360411],[-75.17681747674942,39.92230171091143],[-75.1769033074379,39.9219170456987],[-75.17732173204422,39.92197052869184],[-75.17734855413437,39.92182859296451],[-75.17832219600677,39.921945844238664],[-75.1781290769577,39.92283242193545]]],"type":"Polygon"},"properties":{"description":"Lutheran","fill":"#1087bf","fill-opacity":0.2,"id":"marker-huvf7gdz5","stroke":"#1087bf","stroke-opacity":1,"stroke-width":4,"title":"Trinity Lutheran"},"type":"Feature"},{"geometry":{"coordinates":[[[-75.14367610216141,39.934581063461],[-75.14429032802582,39.93456666685003],[-75.14435470104218,39.93427256399126],[-75.14426350593565,39.93413271044021],[-75.1440891623497,39.934266393987656],[-75.14366939663887,39.934266393987656],[-75.14367610216141,39.934581063461]]],"type":"Polygon"},"properties":{"description":"Non Sectarian, Public, Private or Undetermined Religious Denomination","fill":"#1087bf","fill-opacity":0.2,"id":"marker-huvfaw027","stroke":"#1087bf","stroke-opacity":1,"stroke-width":4,"title":"Old Swede's"},"type":"Feature"},{"geometry":{"coordinates":[[[-75.14989614486694,39.943637988129325],[-75.1494911313057,39.94358863484011],[-75.14954745769501,39.94329662715039],[-75.1492765545845,39.94326372479738],[-75.14921218156815,39.94354133790451],[-75.14886349439621,39.94348992815485],[-75.14894664287567,39.943115664012986],[-75.1499953866005,39.9432431608187],[-75.14989614486694,39.943637988129325]]],"type":"Polygon"},"properties":{"description":"Presbyterian","fill":"#1087bf","fill-opacity":0.2,"id":"marker-huvff8gv9","stroke":"#1087bf","stroke-opacity":1,"stroke-width":4,"title":"Third Presbyterian Church Grounds"},"type":"Feature"},{"geometry":{"coordinates":[[[-75.14640927314758,39.94645517937078],[-75.1457092165947,39.946358533125704],[-75.14576554298401,39.94606653725803],[-75.14647901058197,39.94616524022598],[-75.14640927314758,39.94645517937078]]],"type":"Polygon"},"properties":{"description":"Episcopal","fill":"#1087bf","fill-opacity":0.2,"id":"marker-huvfkqjed","stroke":"#1087bf","stroke-opacity":1,"stroke-width":4,"title":"St. Paul's Cemetery"},"type":"Feature"},{"geometry":{"coordinates":[[[-75.18570899963379,40.00115559004042],[-75.18251180648804,40.000457003243916],[-75.1834774017334,39.99781052726311],[-75.18751144409178,39.998295448238935],[-75.1875329017639,39.99868995767895],[-75.1868999004364,40.00019400400982],[-75.18570899963379,40.00115559004042]]],"type":"Polygon"},"properties":{"description":"Non Sectarian, Public, Private or Undetermined Religious Denomination","fill":"#1087bf","fill-opacity":0.2,"id":"marker-huvfmrlxe","stroke":"#1087bf","stroke-opacity":1,"stroke-width":4,"title":"Mount Vernon Cemetery"},"type":"Feature"},{"geometry":{"coordinates":[[[-75.18105268478394,40.003645788352856],[-75.17975449562073,40.00335814632274],[-75.18103122711182,39.99748998438867],[-75.1834774017334,39.99780230823383],[-75.18251180648804,40.00047344066241],[-75.18571972846983,40.00118024591442],[-75.18429279327393,40.00260205292144],[-75.18386363983154,40.00282395076601],[-75.18105268478394,40.003645788352856]]],"type":"Polygon"},"properties":{"description":"Non Sectarian, Public, Private or Undetermined Religious Denomination","fill":"#1087bf","fill-opacity":0.2,"id":"marker-huvfnpv0f","stroke":"#1087bf","stroke-opacity":1,"stroke-width":4,"title":"Mount Peace Cemetery"},"type":"Feature"},{"geometry":{"coordinates":[[[-75.18421769142151,39.997711898846624],[-75.18469512462616,39.99627971599647],[-75.18306702375412,39.996076290171324],[-75.18264055252075,39.99751464158627],[-75.18421769142151,39.997711898846624]]],"type":"Polygon"},"properties":{"description":"Lutheran","fill":"#1087bf","fill-opacity":0.2,"id":"marker-huvfohosg","stroke":"#1087bf","stroke-opacity":1,"stroke-width":4,"title":"German Lutheran Cemetery"},"type":"Feature"},{"geometry":{"coordinates":[[[-75.14870792627335,39.94346319506977],[-75.14880448579788,39.94291619272743],[-75.14811784029007,39.94283599276831],[-75.14809638261795,39.942934700396954],[-75.14740437269211,39.94285655686933],[-75.14730781316757,39.94330485273617],[-75.14870792627335,39.94346319506977]]],"type":"Polygon"},"properties":{"description":"Episcopal","fill":"#1087bf","fill-opacity":0.2,"id":"marker-huvfg677b","stroke":"#1087bf","stroke-opacity":1,"stroke-width":4,"title":"St. Peter's Cemetery"},"type":"Feature"},{"geometry":{"coordinates":[[[-75.14977812767029,39.945953439932175],[-75.14878571033478,39.94583417345872],[-75.14883935451508,39.9455689076258],[-75.14983177185059,39.94570256883296],[-75.14977812767029,39.945953439932175]]],"type":"Polygon"},"properties":{"description":"Episcopal","fill":"#1087bf","fill-opacity":0.2,"id":"marker-huvfi34pc","stroke":"#1087bf","stroke-opacity":1,"stroke-width":4,"title":"St. Andrew's Cemetery"},"type":"Feature"},{"geometry":{"coordinates":[[[-75.12954890727997,39.97576353442114],[-75.12878715991974,39.974332946830174],[-75.12997269630432,39.97392596385458],[-75.13029992580414,39.974493272791534],[-75.12954890727997,39.97576353442114]]],"type":"Polygon"},"properties":{"description":"Non Sectarian, Public, Private or Undetermined Religious Denomination","fill":"#1087bf","fill-opacity":0.2,"id":"marker-huvhdpce1","stroke":"#1087bf","stroke-opacity":1,"stroke-width":4,"title":"Palmer Cemetery Charitable Grounds"},"type":"Feature"},{"geometry":{"coordinates":[[[-75.08728265762329,40.05516756555964],[-75.08597373962402,40.05442436453555],[-75.08638143539429,40.05393573624183],[-75.08770108222961,40.0546912608636],[-75.08728265762329,40.05516756555964]]],"type":"Polygon"},"properties":{"description":"Episcopal","fill":"#1087bf","fill-opacity":0.2,"id":"marker-huvqsb4rq","stroke":"#1087bf","stroke-opacity":1,"stroke-width":4,"title":"Oxford-Trinity Church and Cemetery"},"type":"Feature"},{"geometry":{"coordinates":[[[-75.13822853565216,39.97354775528048],[-75.13770282268524,39.97348609064059],[-75.13785034418106,39.97279338736335],[-75.13837069272995,39.97285710813607],[-75.13822853565216,39.97354775528048]]],"type":"Polygon"},"properties":{"description":"Catholic","fill":"#1087bf","fill-opacity":0.2,"id":"marker-huvhmqwn2","stroke":"#1087bf","stroke-opacity":1,"stroke-width":4,"title":"St. Michael's Cemetery"},"type":"Feature"},{"geometry":{"coordinates":[[[-75.23842513561249,39.922618492405164],[-75.23738443851471,39.92173396898282],[-75.23884356021881,39.920697210705406],[-75.2399057149887,39.92158586161857],[-75.23842513561249,39.922618492405164]]],"type":"Polygon"},"properties":{"description":"Episcopal","fill":"#1087bf","fill-opacity":0.2,"id":"marker-huvqbfg3p","stroke":"#1087bf","stroke-opacity":1,"stroke-width":4,"title":"St. James of Kingsessing Church and Graveyard"},"type":"Feature"},{"geometry":{"coordinates":[[[-75.210961997509,40.078061165748544],[-75.21172910928726,40.07725869589964],[-75.21206706762312,40.077441356108324],[-75.2112865447998,40.07818225372813],[-75.210961997509,40.078061165748544]]],"type":"Polygon"},"properties":{"description":"Methodist/Methodist Episcopal","fill":"#1087bf","fill-opacity":0.2,"id":"marker-huvq5xjso","stroke":"#1087bf","stroke-opacity":1,"stroke-width":4,"title":"Chestnut Hill M. E. Church Ground"},"type":"Feature"},{"geometry":{"coordinates":[[[-75.2216425538063,40.02661009249219],[-75.22132605314255,40.02619725927994],[-75.22188931703568,40.0259487365893],[-75.22221922874449,40.02636362520331],[-75.2216425538063,40.02661009249219]]],"type":"Polygon"},"properties":{"description":"Presbyterian","fill":"#1087bf","fill-opacity":0.2,"id":"marker-huvpetm0m","stroke":"#1087bf","stroke-opacity":1,"stroke-width":4,"title":"United Presbyterian Reformed Churchyard"},"type":"Feature"},{"geometry":{"coordinates":[[[-75.15384703874588,39.93973279908576],[-75.15322744846343,39.939636143344615],[-75.15325963497162,39.93951892236898],[-75.1532918214798,39.93952303538907],[-75.15330791473387,39.93944694447745],[-75.15390604734421,39.93952097887905],[-75.15384703874588,39.93973279908576]]],"type":"Polygon"},"properties":{"description":"Methodist/Methodist Episcopal","fill":"#1087bf","fill-opacity":0.2,"id":"marker-huvi5lkg3","stroke":"#1087bf","stroke-opacity":1,"stroke-width":4,"title":"St. Paul M.E. Church Grounds"},"type":"Feature"},{"geometry":{"coordinates":[[[-75.1468840241432,39.95180341084908],[-75.14698326587676,39.951373676057194],[-75.14627516269684,39.95128320523068],[-75.14618664979935,39.95171499673451],[-75.1468840241432,39.95180341084908]]],"type":"Polygon"},"properties":{"description":"Quaker/Friends","fill":"#1087bf","fill-opacity":0.2,"id":"marker-huvowo1il","stroke":"#1087bf","stroke-opacity":1,"stroke-width":4,"title":"Friends' Burial Ground"},"type":"Feature"},{"geometry":{"coordinates":[[[-75.16293704509734,39.934903958083275],[-75.16254544258118,39.93484225859166],[-75.1626580953598,39.934309584001035],[-75.16304165124893,39.93435071732178],[-75.16293704509734,39.934903958083275]]],"type":"Polygon"},"properties":{"description":"Jewish","fill":"#1087bf","fill-opacity":0.2,"id":"marker-huvnntzje","stroke":"#1087bf","stroke-opacity":1,"stroke-width":4,"title":"Mikveh Israel II Cemetery"},"type":"Feature"},{"geometry":{"coordinates":[[[-75.1557594537735,39.94628656242899],[-75.15553146600723,39.94624954889833],[-75.15560925006866,39.94586090561742],[-75.15585333108902,39.94589586303991],[-75.1557594537735,39.94628656242899]]],"type":"Polygon"},"properties":{"description":"Jewish","fill":"#1087bf","fill-opacity":0.2,"id":"marker-huvndj4nd","stroke":"#1087bf","stroke-opacity":1,"stroke-width":4,"title":"Mikveh Israel Cemetery"},"type":"Feature"},{"geometry":{"coordinates":[[[-75.16127943992615,39.955119885665674],[-75.16082882881165,39.95506642857434],[-75.16091734170914,39.954642882450585],[-75.16138136386871,39.954700451980656],[-75.16127943992615,39.955119885665674]]],"type":"Polygon"},"properties":{"description":"Episcopal","fill":"#1087bf","fill-opacity":0.2,"id":"marker-huvmsefub","stroke":"#1087bf","stroke-opacity":1,"stroke-width":4,"title":"St. Stephen's Church Graveyard"},"type":"Feature"},{"geometry":{"coordinates":[[[-75.16036748886108,39.93447000381209],[-75.15901029109953,39.93424788397358],[-75.15916585922241,39.9335527264874],[-75.15958428382874,39.93319486159661],[-75.16061961650848,39.93332649027974],[-75.16036748886108,39.93447000381209]]],"type":"Polygon"},"properties":{"description":"Non Sectarian, Public, Private or Undetermined Religious Denomination","fill":"#1087bf","fill-opacity":0.2,"id":"marker-huvn4rn4c","stroke":"#1087bf","stroke-opacity":1,"stroke-width":4,"title":"Lafayette Cemetery"},"type":"Feature"},{"geometry":{"coordinates":[[[-74.94029760360718,40.162132576968425],[-74.93937492370605,40.16059110659801],[-74.9374008178711,40.16182100599224],[-74.93579149246216,40.162673723160154],[-74.93389248847961,40.16348543436017],[-74.93308782577515,40.16384619177825],[-74.93123173713684,40.164387324310844],[-74.93289470672607,40.167019134667065],[-74.93735790252686,40.165764733111686],[-74.94029760360718,40.162132576968425]]],"type":"Polygon"},"properties":{"description":"Catholic","fill":"#f1f075","fill-opacity":0.2,"id":"marker-huvm2d4m9","stroke":"#f1f075","stroke-opacity":1,"stroke-width":4,"title":"Our Lady Of Grace Cemetery"},"type":"Feature"},{"geometry":{"coordinates":[[[-75.14745533466339,39.937462381361],[-75.14739900827408,39.93745415507287],[-75.14732927083969,39.93771533923843],[-75.14705836772919,39.9376700948087],[-75.14719516038895,39.937114819825624],[-75.14752775430678,39.937178573848925],[-75.14745533466339,39.937462381361]]],"type":"Polygon"},"properties":{"description":"Episcopal","fill":"#1087bf","fill-opacity":0.2,"id":"marker-huvlvrxe7","stroke":"#1087bf","stroke-opacity":1,"stroke-width":4,"title":"Trinity P.E. Grounds"},"type":"Feature"},{"geometry":{"coordinates":[[[-75.13119846582413,39.97176151367711],[-75.13031601905823,39.972065733036644],[-75.13066738843916,39.972684445259496],[-75.1315525174141,39.97240489491552],[-75.13119846582413,39.97176151367711]]],"type":"Polygon"},"properties":{"description":"Non Sectarian, Public, Private or Undetermined Religious Denomination","fill":"#1087bf","fill-opacity":0.2,"id":"marker-huvh411a0","stroke":"#1087bf","stroke-opacity":1,"stroke-width":4,"title":"Hanover Cemetery"},"type":"Feature"},{"geometry":{"coordinates":[[[-75.19073009490967,40.00652214200176],[-75.18876671791077,40.006744027105434],[-75.18819808959961,40.006382436196105],[-75.18791913986206,40.00603727945054],[-75.18754363059998,40.004936053406226],[-75.18743634223938,40.003243089171384],[-75.18688380718231,40.00108162236499],[-75.18689453601837,40.000896702825855],[-75.18705010414124,40.000399472248],[-75.18767237663268,39.998911868237336],[-75.18770456314087,39.99656944264072],[-75.18919587135315,39.99684067498091],[-75.18948554992674,39.996824236687914],[-75.1897644996643,39.996906428113256],[-75.1908266544342,39.99756395595478],[-75.19050478935242,39.99957759558554],[-75.1905369758606,40.0000871602816],[-75.19055843353271,40.00056795574196],[-75.19048869609833,40.00104874781688],[-75.19020974636078,40.0020637421906],[-75.19044578075409,40.00364167918954],[-75.19060671329498,40.004027939461196],[-75.19060134887695,40.00459910756007],[-75.19014000892639,40.00459088934793],[-75.19075155258179,40.00620164002322],[-75.19073009490967,40.00652214200176]]],"type":"Polygon"},"properties":{"description":"Non Sectarian, Public, Private or Undetermined Religious Denomination","fill":"#1087bf","fill-opacity":0.2,"id":"marker-huvllv075","stroke":"#1087bf","stroke-opacity":1,"stroke-width":4,"title":"Laurel Hill Cemetery"},"type":"Feature"},{"geometry":{"coordinates":[[[-75.17105877399445,40.03561375358992],[-75.1719868183136,40.03473890617436],[-75.17169713973999,40.03455407781964],[-75.17131358385086,40.0349545386218],[-75.17120629549026,40.03488882213862],[-75.17080396413803,40.03544741022712],[-75.17105877399445,40.03561375358992]]],"type":"Polygon"},"properties":{"description":"Presbyterian","fill":"#1087bf","fill-opacity":0.2,"id":"marker-huvl825j4","stroke":"#1087bf","stroke-opacity":1,"stroke-width":4,"title":"Market Square Presbyterian Church Ground"},"type":"Feature"},{"geometry":{"coordinates":[[[-75.15164226293564,39.94568200558733],[-75.15167713165282,39.945558625983644],[-75.15227258205414,39.94563676642514],[-75.15224039554595,39.94576631485518],[-75.15164226293564,39.94568200558733]]],"type":"Polygon"},"properties":{"description":"Catholic","fill":"#1087bf","fill-opacity":0.2,"id":"marker-huvnv1r9f","stroke":"#1087bf","stroke-opacity":1,"stroke-width":4,"title":"Holy Trinity Cemetery"},"type":"Feature"},{"geometry":{"coordinates":[[[-75.16757726669312,39.95680170666384],[-75.16604840755463,39.95660844327348],[-75.16623079776764,39.955761367502525],[-75.1677542924881,39.95596696938206],[-75.16757726669312,39.95680170666384]]],"type":"Polygon"},"properties":{"description":"Quaker/Friends","fill":"#1087bf","fill-opacity":0.2,"id":"marker-huvmkusda","stroke":"#1087bf","stroke-opacity":1,"stroke-width":4,"title":"Friends' Western Burial Ground"},"type":"Feature"},{"geometry":{"coordinates":[[[-75.14855235815048,39.95541184288875],[-75.14819294214247,39.955356329991595],[-75.14829218387602,39.95498624285899],[-75.14865696430206,39.955039700012996],[-75.14855235815048,39.95541184288875]]],"type":"Polygon"},"properties":{"description":"Lutheran","fill":"#1087bf","fill-opacity":0.2,"id":"marker-huvonu0ji","stroke":"#1087bf","stroke-opacity":1,"stroke-width":4,"title":"St. John Evangelical Lutheran"},"type":"Feature"},{"geometry":{"coordinates":[[[-75.14844238758087,39.952541561438544],[-75.14761626720428,39.952434643183565],[-75.1478362083435,39.95143124833905],[-75.14863014221191,39.9515381681625],[-75.14844238758087,39.952541561438544]]],"type":"Polygon"},"properties":{"description":"Episcopal","fill":"#1087bf","fill-opacity":0.2,"id":"marker-huvosyh1k","stroke":"#1087bf","stroke-opacity":1,"stroke-width":4,"title":"Christ Church Grounds"},"type":"Feature"},{"geometry":{"coordinates":[[[-75.17870306968689,39.92635393506106],[-75.17775893211365,39.92408718745354],[-75.17687648534773,39.92428054271808],[-75.17726004123686,39.92497579437029],[-75.17689526081085,39.92506835692755],[-75.1774987578392,39.92629634167719],[-75.17727077007294,39.92636421958881],[-75.1774451136589,39.92670977882258],[-75.17870306968689,39.92635393506106]]],"type":"Polygon"},"properties":{"description":"Non Sectarian, Public, Private or Undetermined Religious Denomination","fill":"#1087bf","fill-opacity":0.2,"id":"marker-huvks8va3","stroke":"#1087bf","stroke-opacity":1,"stroke-width":4,"title":"Lebanon Cemetery"},"type":"Feature"},{"geometry":{"coordinates":[[[-75.17145305871964,39.9572416872389],[-75.17154425382614,39.956834602505715],[-75.17168909311295,39.956851050420674],[-75.17160058021545,39.95726019103285],[-75.17145305871964,39.9572416872389]]],"type":"Polygon"},"properties":{"description":"Presbyterian","fill":"#1087bf","fill-opacity":0.2,"id":"marker-huvjrnz72","stroke":"#1087bf","stroke-opacity":1,"stroke-width":4,"title":"Ninth Presbyterian Ground"},"type":"Feature"},{"geometry":{"coordinates":[[[-74.98064070940016,40.102727880888075],[-74.98005330562592,40.10223549586965],[-74.9808257818222,40.101702074745035],[-74.98106181621552,40.1018928758585],[-74.98049318790436,40.102301147411346],[-74.98084187507628,40.10259657856494],[-74.98064070940016,40.102727880888075]]],"type":"Polygon"},"properties":{"description":"Quaker/Friends","fill":"#1087bf","fill-opacity":0.2,"id":"marker-huvjkwd01","stroke":"#1087bf","stroke-opacity":1,"stroke-width":4,"title":"Byberry Friends' Ground"},"type":"Feature"},{"geometry":{"coordinates":[[[-75.15002489089964,39.945647048055555],[-75.14997661113739,39.94589791935836],[-75.15020996332169,39.945926707809654],[-75.15019923448563,39.94598428467596],[-75.15031188726425,39.94599662256956],[-75.1502850651741,39.94612411400663],[-75.15062838792801,39.94616729653629],[-75.15071958303452,39.94572724471959],[-75.15002489089964,39.945647048055555]]],"type":"Polygon"},"properties":{"description":"Quaker/Friends","fill":"#1087bf","fill-opacity":0.2,"id":"marker-huvoa77ch","stroke":"#1087bf","stroke-opacity":1,"stroke-width":4,"title":"Free Quaker Cemetery"},"type":"Feature"},{"geometry":{"coordinates":[[[-75.15301018953323,39.93758166242785],[-75.15272587537766,39.93750145621615],[-75.15289753675461,39.937125102736616],[-75.15317380428314,39.93720530938943],[-75.15301018953323,39.93758166242785]]],"type":"Polygon"},"properties":{"description":"Non Sectarian, Public, Private or Undetermined Religious Denomination","fill":"#1087bf","fill-opacity":0.2,"id":"marker-huvixqcq0","stroke":"#1087bf","stroke-opacity":1,"stroke-width":4,"title":"Mount Zion Cemetery"},"type":"Feature"},{"geometry":{"coordinates":[[[-75.2171203494072,40.03001535771946],[-75.21742880344391,40.03029877985192],[-75.21775335073471,40.03009340161255],[-75.21745026111603,40.02982230138973],[-75.2171203494072,40.03001535771946]]],"type":"Polygon"},"properties":{"description":"Lutheran","fill":"#1087bf","fill-opacity":0.2,"id":"marker-huvrw4sy2","stroke":"#1087bf","stroke-opacity":1,"stroke-width":4,"title":"Bethanien German Lutheran Evangelical Church Ground"},"type":"Feature"},{"geometry":{"coordinates":[[[-75.2014696598053,39.94968760917033],[-75.20093321800232,39.949103644607696],[-75.20078301429749,39.948651274266325],[-75.2007508277893,39.948009725743496],[-75.20090103149414,39.9479357005268],[-75.20089030265808,39.94767249910749],[-75.20061135292053,39.94747509737846],[-75.20034313201903,39.94721189418699],[-75.19996762275696,39.94655388177799],[-75.19954919815063,39.946282449815456],[-75.19953846931456,39.945270739376454],[-75.20156621932983,39.94515558439441],[-75.20252108573914,39.944974626173824],[-75.20362615585326,39.94467851168955],[-75.20516037940979,39.94412740632048],[-75.20531594753265,39.94552983737744],[-75.20665168762207,39.94697336542006],[-75.20495653152464,39.948519675059835],[-75.2014696598053,39.94968760917033]]],"type":"Polygon"},"properties":{"description":"Non Sectarian, Public, Private or Undetermined Religious Denomination","fill":"#1087bf","fill-opacity":0.2,"id":"marker-huvrn2qm0","stroke":"#1087bf","stroke-opacity":1,"stroke-width":4,"title":"Woodlands Cemetery"},"type":"Feature"},{"geometry":{"coordinates":[[[-75.21191954612732,40.035237940230104],[-75.2112329006195,40.034531487653055],[-75.21157622337341,40.03427683434833],[-75.21126508712769,40.03392360399664],[-75.2132499217987,40.03286390196452],[-75.21353960037231,40.033143204873255],[-75.21434426307678,40.03279818346684],[-75.21525621414185,40.033627874853316],[-75.21191954612732,40.035237940230104]]],"type":"Polygon"},"properties":{"description":"Baptist","fill":"#1087bf","fill-opacity":0.2,"id":"marker-huvrteni1","stroke":"#1087bf","stroke-opacity":1,"stroke-width":4,"title":"Roxborough Baptist Burial Grounds"},"type":"Feature"},{"geometry":{"coordinates":[[[-75.1305091381073,40.01125553446102],[-75.12274146080017,40.01024478550775],[-75.12289166450499,40.00959559739204],[-75.12503743171692,40.009258674543865],[-75.12704372406006,40.00846155776947],[-75.12913584709167,40.00807532258254],[-75.13114213943481,40.008354726978965],[-75.1305091381073,40.01125553446102]]],"type":"Polygon"},"properties":{"description":"Catholic","fill":"#1087bf","fill-opacity":0.2,"id":"marker-hux6vbiny","stroke":"#1087bf","stroke-opacity":1,"stroke-width":4,"title":"New Cathedral Cemetery"},"type":"Feature"},{"geometry":{"coordinates":[[[-75.15114337205887,39.93782228049889],[-75.1510414481163,39.93809580257784],[-75.15062838792801,39.938019710079175],[-75.15073031187056,39.93775235738598],[-75.15114337205887,39.93782228049889]]],"type":"Polygon"},"properties":{"description":"","fill":"#1087bf","fill-opacity":0.2,"id":"marker-huy45gvgz","stroke":"#1087bf","stroke-opacity":1,"stroke-width":4,"title":"Mother Bethel Burying Ground"},"type":"Feature"},{"geometry":{"coordinates":[[[-75.14342129230499,40.045903663257214],[-75.14343738555908,40.045778411271066],[-75.145044028759,40.04585233050384],[-75.14510303735733,40.04597758235417],[-75.14342129230499,40.045903663257214]]],"type":"Polygon"},"properties":{"description":"Non Sectarian, Public, Private or Undetermined Religious Denomination","fill":"#1087bf","fill-opacity":0.2,"id":"marker-huwtyxshl","stroke":"#1087bf","stroke-opacity":1,"stroke-width":4,"title":"DeBenneville Family Burial Grounds"},"type":"Feature"},{"geometry":{"coordinates":[[[-75.18279880285262,40.05125232430128],[-75.1825949549675,40.05113118844674],[-75.18366247415543,40.05009433885018],[-75.1838743686676,40.05020726382903],[-75.18279880285262,40.05125232430128]]],"type":"Polygon"},"properties":{"description":"Non Sectarian, Public, Private or Undetermined Religious Denomination","fill":"#1087bf","fill-opacity":0.2,"id":"marker-huwto7qri","stroke":"#1087bf","stroke-opacity":1,"stroke-width":4,"title":"Church of Brethren (Old Dunkard's Ground)"},"type":"Feature"},{"geometry":{"coordinates":[[[-75.12027382850646,40.03130307053678],[-75.12012898921967,40.03229297040121],[-75.12097656726837,40.03240387115084],[-75.12118041515349,40.03159059479943],[-75.12027382850646,40.03130307053678]]],"type":"Polygon"},"properties":{"description":"Methodist/Methodist Episcopal","fill":"#1087bf","fill-opacity":0.2,"id":"marker-huwp9ci80","stroke":"#1087bf","stroke-opacity":1,"stroke-width":4,"title":"St. James M.E. Church Grounds"},"type":"Feature"},{"geometry":{"coordinates":[[[-75.18194317817688,40.0761914579197],[-75.180344581604,40.07794007755365],[-75.17691135406494,40.07592054100141],[-75.17908930778503,40.07216043127949],[-75.18016219139099,40.0727351339783],[-75.18087029457092,40.07201264980169],[-75.18617033958435,40.07502568655148],[-75.18385291099548,40.077266905357746],[-75.18194317817688,40.0761914579197]]],"type":"Polygon"},"properties":{"description":"Non Sectarian, Public, Private or Undetermined Religious Denomination","fill":"#1087bf","fill-opacity":0.2,"id":"marker-huwsr5buc","stroke":"#1087bf","stroke-opacity":1,"stroke-width":4,"title":"Ivy Hill Cemetery"},"type":"Feature"},{"geometry":{"coordinates":[[[-75.16547441482543,40.06724241988913],[-75.16078591346741,40.06454105721372],[-75.1620626449585,40.06323549704039],[-75.16764163970947,40.0651979333746],[-75.16547441482543,40.06724241988913]]],"type":"Polygon"},"properties":{"description":"Non Sectarian, Public, Private or Undetermined Religious Denomination","fill":"#1087bf","fill-opacity":0.2,"id":"marker-huwt0eyhd","stroke":"#1087bf","stroke-opacity":1,"stroke-width":4,"title":"Chelten Hills Cemetery"},"type":"Feature"},{"geometry":{"coordinates":[[[-75.2191776037216,40.02549071306029],[-75.21871626377106,40.02488685671262],[-75.2195155620575,40.02426656333458],[-75.22035241127014,40.02490739613197],[-75.2191776037216,40.02549071306029]]],"type":"Polygon"},"properties":{"description":"Catholic","fill":"#1087bf","fill-opacity":0.2,"id":"marker-huwt31ewe","stroke":"#1087bf","stroke-opacity":1,"stroke-width":4,"title":"St. John the Baptist Church Grounds (Manayunk)"},"type":"Feature"},{"geometry":{"coordinates":[[[-75.15694499015808,40.058694580354924],[-75.15584260225296,40.05726162430043],[-75.15283316373825,40.05861041041685],[-75.15379071235657,40.06003307368992],[-75.15694499015808,40.058694580354924]]],"type":"Polygon"},"properties":{"description":"Non Sectarian, Public, Private or Undetermined Religious Denomination","fill":"#1087bf","fill-opacity":0.2,"id":"marker-huwt5uqif","stroke":"#1087bf","stroke-opacity":1,"stroke-width":4,"title":"Philadelphia National Cemetery"},"type":"Feature"},{"geometry":{"coordinates":[[[-75.14732122421265,40.06271819269275],[-75.1453685760498,40.06267713662391],[-75.14342665672302,40.065559212563365],[-75.14100193977355,40.06415513951561],[-75.1423966884613,40.05809512389518],[-75.1475465297699,40.05841538211196],[-75.14732122421265,40.06271819269275]]],"type":"Polygon"},"properties":{"description":"Non Sectarian, Public, Private or Undetermined Religious Denomination","fill":"#1087bf","fill-opacity":0.2,"id":"marker-huwt8cqog","stroke":"#1087bf","stroke-opacity":1,"stroke-width":4,"title":"Northwood Cemetery"},"type":"Feature"},{"geometry":{"coordinates":[[[-75.15958160161972,40.054853451198554],[-75.15971571207047,40.05492736059024],[-75.15955746173859,40.0550690200336],[-75.15942871570587,40.054988951688756],[-75.15958160161972,40.054853451198554]]],"type":"Polygon"},"properties":{"description":"Non Sectarian, Public, Private or Undetermined Religious Denomination","fill":"#1087bf","fill-opacity":0.2,"id":"marker-huwtd79th","stroke":"#1087bf","stroke-opacity":1,"stroke-width":4,"title":"Kulp's Family Ground"},"type":"Feature"},{"geometry":{"coordinates":[[[-75.18380463123322,40.05311450432697],[-75.18330037593842,40.05281885841517],[-75.18480241298676,40.05139809767133],[-75.18494725227356,40.05130981242813],[-75.18519401550293,40.05179230015275],[-75.18380463123322,40.05311450432697]]],"type":"Polygon"},"properties":{"description":"Lutheran","fill":"#1087bf","fill-opacity":0.2,"id":"marker-huwttl80k","stroke":"#1087bf","stroke-opacity":1,"stroke-width":4,"title":"St. Michael's Evangelical Lutheran Churchyard"},"type":"Feature"},{"geometry":{"coordinates":[[[-75.17138332128525,40.03348411716768],[-75.17108291387558,40.033307500167645],[-75.17153352499008,40.0328762241758],[-75.17184466123581,40.03305489598899],[-75.17138332128525,40.03348411716768]]],"type":"Polygon"},"properties":{"description":"Quaker/Friends","fill":"#1087bf","fill-opacity":0.2,"id":"marker-huwpvipv1","stroke":"#1087bf","stroke-opacity":1,"stroke-width":4,"title":"Germantown Prepatory Meeting of Friends' Burial Ground"},"type":"Feature"},{"geometry":{"coordinates":[[[-75.23952215909956,40.0588074910842],[-75.23911982774733,40.058440017297066],[-75.23837149143219,40.05881364984586],[-75.23880869150162,40.059289925728976],[-75.23952215909956,40.0588074910842]]],"type":"Polygon"},"properties":{"description":"Presbyterian","fill":"#1087bf","fill-opacity":0.2,"id":"marker-huwu3aqrm","stroke":"#1087bf","stroke-opacity":1,"stroke-width":4,"title":"Roxborough Presbyterian Burial Grounds"},"type":"Feature"},{"geometry":{"coordinates":[[[-75.22688627243042,40.039053479095855],[-75.22662609815598,40.03871875521953],[-75.22650808095932,40.03878036096432],[-75.22622108459473,40.03842099333513],[-75.22709012031555,40.03787475091153],[-75.22783845663069,40.03861197179673],[-75.22688627243042,40.039053479095855]]],"type":"Polygon"},"properties":{"description":"Catholic","fill":"#1087bf","fill-opacity":0.2,"id":"marker-huwu95gan","stroke":"#1087bf","stroke-opacity":1,"stroke-width":4,"title":"St. Mary of the Assumption Cemetery"},"type":"Feature"},{"geometry":{"coordinates":[[[-75.20412236452103,39.956575547322856],[-75.20406067371368,39.95631443515348],[-75.20377904176712,39.9563370512076],[-75.2038300037384,39.956536483360956],[-75.20412236452103,39.956575547322856]]],"type":"Polygon"},"properties":{"description":"Non Sectarian, Public, Private or Undetermined Religious Denomination","fill":"#1087bf","fill-opacity":0.2,"id":"marker-hux3r55no","stroke":"#1087bf","stroke-opacity":1,"stroke-width":4,"title":"Rose Burying Ground"},"type":"Feature"},{"geometry":{"coordinates":[[[-75.2103316783905,40.02842365357605],[-75.20974159240723,40.02730635777224],[-75.2101868391037,40.02715026351922],[-75.21013855934143,40.027055785245146],[-75.21055698394774,40.02687915159923],[-75.21117925643921,40.02806628521763],[-75.2103316783905,40.02842365357605]]],"type":"Polygon"},"properties":{"description":"Episcopal","fill":"#1087bf","fill-opacity":0.2,"id":"marker-hux3va87p","stroke":"#1087bf","stroke-opacity":1,"stroke-width":4,"title":"St. Timothy's Churchyard"},"type":"Feature"},{"geometry":{"coordinates":[[[-75.181428194046,40.00372797156746],[-75.18374562263487,40.00301297428695],[-75.18352031707764,40.00413888615648],[-75.181428194046,40.00372797156746]]],"type":"Polygon"},"properties":{"description":"Episcopal","fill":"#1087bf","fill-opacity":0.2,"id":"marker-hux4jjzpq","stroke":"#1087bf","stroke-opacity":1,"stroke-width":4,"title":"St. James the Less Church Grounds"},"type":"Feature"},{"geometry":{"coordinates":[[[-75.15180587768555,40.01492040106878],[-75.15236914157867,40.015848912258754],[-75.1516342163086,40.01556543009353],[-75.15128821134567,40.01508063177781],[-75.15180587768555,40.01492040106878]]],"type":"Polygon"},"properties":{"description":"Catholic","fill":"#1087bf","fill-opacity":0.2,"id":"marker-hux4ncunr","stroke":"#1087bf","stroke-opacity":1,"stroke-width":4,"title":"St. Stephen Cemetery"},"type":"Feature"},{"geometry":{"coordinates":[[[-75.14588624238968,39.98862103487435],[-75.14479726552963,39.98847512732753],[-75.1448804140091,39.98808672402902],[-75.14597475528717,39.98821413699468],[-75.14588624238968,39.98862103487435]]],"type":"Polygon"},"properties":{"description":"Catholic","fill":"#1087bf","fill-opacity":0.2,"id":"marker-hux52ya4s","stroke":"#1087bf","stroke-opacity":1,"stroke-width":4,"title":"St. Edward the Confessor Cemetery"},"type":"Feature"},{"geometry":{"coordinates":[-75.13034284114838,39.9674611870807],"type":"Point"},"properties":{"description":"Methodist Episcopal","id":"marker-hux5njagt","marker-color":"#1087bf","marker-size":"medium","marker-symbol":"cemetery","title":"Kensington Methodist Episcopal Church"},"type":"Feature"},{"geometry":{"coordinates":[[[-75.1466104388237,39.99755368213094],[-75.14521837234497,39.99737286257844],[-75.1455107331276,39.99603108435013],[-75.14695912599564,39.996209852650075],[-75.1466104388237,39.99755368213094]]],"type":"Polygon"},"properties":{"description":"Non Sectarian, Public, Private or Undetermined Religious Denomination","fill":"#1087bf","fill-opacity":0.2,"id":"marker-hux5wc7ku","stroke":"#1087bf","stroke-opacity":1,"stroke-width":4,"title":"Fairhill Cemetery"},"type":"Feature"},{"geometry":{"coordinates":[[[-75.1193779706955,40.01973537508281],[-75.11941015720367,40.01965321114011],[-75.12048304080963,40.01959158811816],[-75.12019336223601,40.02093495737941],[-75.12062788009644,40.02099657918814],[-75.12093901634215,40.0196449947404],[-75.12131452560425,40.01968607672909],[-75.12144327163696,40.01865080307277],[-75.12377142906189,40.019677860333324],[-75.12441784143448,40.01802223640396],[-75.12505888938904,40.01760729706432],[-75.12736290693283,40.01627413329865],[-75.12819707393646,40.017118404901794],[-75.12975007295609,40.01580371952872],[-75.12954086065292,40.015772906286514],[-75.12985467910767,40.014443815197886],[-75.12593328952788,40.013876838016735],[-75.12547463178635,40.01241212516442],[-75.12268245220184,40.01335094192795],[-75.12225329875946,40.013654976098444],[-75.12165784835815,40.013852186728094],[-75.1212340593338,40.01423428070138],[-75.12078881263733,40.014447923710996],[-75.12045621871948,40.01492450955319],[-75.11998951435089,40.015076523302795],[-75.11980175971985,40.01524086211063],[-75.11868596076965,40.015298380599894],[-75.11776328086853,40.01562294830924],[-75.11751651763916,40.01979288978386],[-75.1193779706955,40.01973537508281]]],"type":"Polygon"},"properties":{"description":"Non Sectarian, Public, Private or Undetermined Religious Denomination","fill":"#1087bf","fill-opacity":0.2,"id":"marker-hux6kfkiw","stroke":"#1087bf","stroke-opacity":1,"stroke-width":4,"title":"Greenmount Cemetery"},"type":"Feature"},{"geometry":{"coordinates":[[[-75.20707815885544,40.07813504996509],[-75.2072149515152,40.078210986437455],[-75.20804107189178,40.07741467543423],[-75.20803034305573,40.07719302019924],[-75.20707815885544,40.07813504996509]]],"type":"Polygon"},"properties":{"description":"Baptist","fill":"#1087bf","fill-opacity":0.2,"id":"marker-huwsfhwnb","stroke":"#1087bf","stroke-opacity":1,"stroke-width":4,"title":"Chestnut Hill Baptist Church Ground"},"type":"Feature"},{"geometry":{"coordinates":[[[-75.17267882823944,40.03286184826243],[-75.17331451177597,40.032223143910805],[-75.17370074987411,40.032459321458035],[-75.17310529947281,40.03307543294903],[-75.17267882823944,40.03286184826243]]],"type":"Polygon"},"properties":{"description":"","fill":"#1087bf","fill-opacity":0.2,"id":"marker-huwq6v8b3","stroke":"#1087bf","stroke-opacity":1,"stroke-width":4,"title":"Second Church of Christ Scientist Church Cemetery"},"type":"Feature"},{"geometry":{"coordinates":[[[-75.16970157623291,40.030937502224106],[-75.16867697238922,40.031915085011434],[-75.16898810863495,40.032104027968046],[-75.17001271247864,40.03113055539741],[-75.16970157623291,40.030937502224106]]],"type":"Polygon"},"properties":{"description":"Lutheran","fill":"#1087bf","fill-opacity":0.2,"id":"marker-huwqlfxb5","stroke":"#1087bf","stroke-opacity":1,"stroke-width":4,"title":"Trinity Lutheran Cemetery"},"type":"Feature"},{"geometry":{"coordinates":[[[-75.16690135002136,40.031149039183205],[-75.16669481992722,40.031023760092474],[-75.16509890556335,40.032564060804155],[-75.16529202461243,40.032679068528346],[-75.16690135002136,40.031149039183205]]],"type":"Polygon"},"properties":{"description":"Methodist/Methodist Episcopal","fill":"#1087bf","fill-opacity":0.2,"id":"marker-huwqpgyx6","stroke":"#1087bf","stroke-opacity":1,"stroke-width":4,"title":"St. Stephen's M.E. Grounds"},"type":"Feature"},{"geometry":{"coordinates":[[[-75.17185539007187,40.0320526848251],[-75.17263054847717,40.032510664294826],[-75.17310529947281,40.032046523645356],[-75.17233818769455,40.03158032609664],[-75.17185539007187,40.0320526848251]]],"type":"Polygon"},"properties":{"description":"Quaker/Friends","fill":"#1087bf","fill-opacity":0.2,"id":"marker-huwq01qd2","stroke":"#1087bf","stroke-opacity":1,"stroke-width":4,"title":"Greene St. Friends' Burying Ground"},"type":"Feature"},{"geometry":{"coordinates":[[[-75.16965061426163,40.034196741580146],[-75.17013341188431,40.03371412931922],[-75.17083883285522,40.034118702382194],[-75.17036408185959,40.034588989880575],[-75.16965061426163,40.034196741580146]]],"type":"Polygon"},"properties":{"description":"Episcopal","fill":"#1087bf","fill-opacity":0.2,"id":"marker-huwqhx8y4","stroke":"#1087bf","stroke-opacity":1,"stroke-width":4,"title":"St. Luke's Church Burial Grounds"},"type":"Feature"},{"geometry":{"coordinates":[[[-75.17909198999403,40.04118910195148],[-75.1787781715393,40.04144988977504],[-75.17874330282211,40.041427301892774],[-75.17866551876068,40.04149301207494],[-75.17900615930557,40.0417004094221],[-75.17911612987518,40.04161211161876],[-75.17901420593262,40.04151765337694],[-75.17912149429321,40.04145194321849],[-75.17922073602676,40.04153408090666],[-75.17930924892426,40.04146631732109],[-75.17909198999403,40.04118910195148]]],"type":"Polygon"},"properties":{"description":"Mennonite","fill":"#1087bf","fill-opacity":0.2,"id":"marker-huwrx7axa","stroke":"#1087bf","stroke-opacity":1,"stroke-width":4,"title":"Germantown Mennonite Grounds"},"type":"Feature"},{"geometry":{"coordinates":[[[-75.18107950687408,40.04367783957317],[-75.1809373497963,40.04372917396389],[-75.18059134483337,40.04409262034457],[-75.18088907003403,40.04427947620425],[-75.18125653266907,40.04400843237231],[-75.18107950687408,40.04367783957317]]],"type":"Polygon"},"properties":{"description":"Non Sectarian, Public, Private or Undetermined Religious Denomination","fill":"#1087bf","fill-opacity":0.2,"id":"marker-huwr0v698","stroke":"#1087bf","stroke-opacity":1,"stroke-width":4,"title":"Axe's Burial Ground"},"type":"Feature"},{"geometry":{"coordinates":[[[-75.16141086816788,40.029064447323506],[-75.16194194555283,40.02940332619877],[-75.16267150640488,40.02870913614938],[-75.16223967075348,40.02845035343574],[-75.16192317008972,40.028760481809186],[-75.16141086816788,40.029064447323506]]],"type":"Polygon"},"properties":{"description":"Non Sectarian, Public, Private or Undetermined Religious Denomination","fill":"#1087bf","fill-opacity":0.2,"id":"marker-huwrlixz9","stroke":"#1087bf","stroke-opacity":1,"stroke-width":4,"title":"Hood Cemetery"},"type":"Feature"},{"geometry":{"coordinates":[[[-75.1512399315834,39.94764165512487],[-75.15307992696762,39.94787812530285],[-75.15339106321335,39.946461348275406],[-75.15155643224715,39.9462289858171],[-75.1512399315834,39.94764165512487]]],"type":"Polygon"},"properties":{"description":"","fill":"#1087bf","fill-opacity":0.2,"id":"marker-huy8sgw30","stroke":"#1087bf","stroke-opacity":1,"stroke-width":4,"title":"Potters Field 1 [Washington Square]"},"type":"Feature"},{"geometry":{"coordinates":[[[-75.16884326934814,39.95888233750862],[-75.16924560070038,39.95714711221396],[-75.17118752002716,39.95739794134143],[-75.17080664634705,39.95912082474726],[-75.16884326934814,39.95888233750862]]],"type":"Polygon"},"properties":{"description":"","fill":"#1087bf","fill-opacity":0.2,"id":"marker-huy8yzu31","stroke":"#1087bf","stroke-opacity":1,"stroke-width":4,"title":"Potters Field 2 [Logan Square/Eakins Oval]"},"type":"Feature"},{"geometry":{"coordinates":[[[-75.1599758863449,39.9439916856603],[-75.15843093395233,39.94379838607345],[-75.158551633358,39.94322465323261],[-75.1600992679596,39.943415898047455],[-75.1599758863449,39.9439916856603]]],"type":"Polygon"},"properties":{"description":"","fill":"#1087bf","fill-opacity":0.2,"id":"marker-huy96ifh2","stroke":"#1087bf","stroke-opacity":1,"stroke-width":4,"title":"Potters Field 3"},"type":"Feature"},{"geometry":{"coordinates":[[[-75.15840142965317,39.94379427331033],[-75.15685647726059,39.94360508594046],[-75.15697985887527,39.94302929507413],[-75.15851944684982,39.94322259683386],[-75.15840142965317,39.94379427331033]]],"type":"Polygon"},"properties":{"description":"","fill":"#1087bf","fill-opacity":0.2,"id":"marker-huy97w8h3","stroke":"#1087bf","stroke-opacity":1,"stroke-width":4,"title":"Potters Field 5"},"type":"Feature"},{"geometry":{"coordinates":[[[-75.16907930374146,39.97225278615979],[-75.17077445983887,39.971315459870766],[-75.16985177993774,39.970287675042755],[-75.16814589500427,39.97124968210464],[-75.16907930374146,39.97225278615979]]],"type":"Polygon"},"properties":{"description":"","fill":"#1087bf","fill-opacity":0.2,"id":"marker-huya8aun4","stroke":"#63b6e5","stroke-opacity":1,"stroke-width":4,"title":"Potters Field 6 [The Vineyard]"},"type":"Feature"},{"geometry":{"coordinates":[[[-75.18299460411072,39.95589706481237],[-75.18121361732483,39.95569146272268],[-75.18139600753784,39.954712788302224],[-75.18316626548767,39.954926617522545],[-75.18299460411072,39.95589706481237]]],"type":"Polygon"},"properties":{"description":"","fill":"#1087bf","fill-opacity":0.2,"id":"marker-huyae7vd5","stroke":"#63b6e5","stroke-opacity":1,"stroke-width":4,"title":"Potters Field 7 [Lower Burying Ground]"},"type":"Feature"},{"geometry":{"coordinates":[[[-75.18299460411072,39.95590117684785],[-75.18121898174286,39.95569557477054],[-75.18105268478394,39.95680170666384],[-75.18276929855347,39.95700730541574],[-75.18299460411072,39.95590117684785]]],"type":"Polygon"},"properties":{"description":"","fill":"#1087bf","fill-opacity":0.2,"id":"marker-huyaftck6","stroke":"#63b6e5","stroke-opacity":1,"stroke-width":4,"title":"Potters Field 8 [Upper Burying Ground]"},"type":"Feature"},{"geometry":{"coordinates":[[[-75.13059765100479,39.97464743201506],[-75.13075053691864,39.97470087379806],[-75.13051450252533,39.97509963039809],[-75.13037234544754,39.975046188926896],[-75.13059765100479,39.97464743201506]]],"type":"Polygon"},"properties":{"description":"","fill":"#1087bf","fill-opacity":0.2,"id":"marker-huyedlfqi","stroke":"#1087bf","stroke-opacity":1,"stroke-width":4,"title":"Unknown"},"type":"Feature"},{"geometry":{"coordinates":[[[-75.11854112148283,39.9827886003348],[-75.11777400970459,39.98188841280685],[-75.1188200712204,39.98132938627213],[-75.11960327625275,39.98222547071316],[-75.11854112148283,39.9827886003348]]],"type":"Polygon"},"properties":{"description":"Catholic","fill":"#1087bf","fill-opacity":0.2,"id":"marker-huydkuhff","stroke":"#1087bf","stroke-opacity":1,"stroke-width":4,"title":"St. Anne's Parish Cemetery"},"type":"Feature"},{"geometry":{"coordinates":[[[-75.11524468660355,39.992928249655485],[-75.11675477027893,39.992338489634854],[-75.11755406856535,39.993518004583635],[-75.11638194322586,39.99420227830966],[-75.11624246835709,39.99404816320376],[-75.11611640453339,39.99416529071597],[-75.11524468660355,39.992928249655485]]],"type":"Polygon"},"properties":{"description":"Non Sectarian, Public, Private or Undetermined Religious Denomination","fill":"#1087bf","fill-opacity":0.2,"id":"marker-huydwvytg","stroke":"#1087bf","stroke-opacity":1,"stroke-width":4,"title":"Franklin Cemetery"},"type":"Feature"},{"geometry":{"coordinates":[[[-75.12760430574417,39.97474403828458],[-75.12797713279724,39.975416167485974],[-75.12847870588303,39.97524145563822],[-75.12810587882996,39.974567269262224],[-75.12760430574417,39.97474403828458]]],"type":"Polygon"},"properties":{"description":"Non Sectarian, Public, Private or Undetermined Religious Denomination","fill":"#1087bf","fill-opacity":0.2,"id":"marker-huye8acfh","stroke":"#1087bf","stroke-opacity":1,"stroke-width":4,"title":"Union Burial Ground of the Northern Liberties & Kensington"},"type":"Feature"},{"geometry":{"coordinates":[[[-75.17014682292938,39.96719189376626],[-75.16864478588104,39.96717133698113],[-75.16884326934814,39.966205161106785],[-75.17033457756042,39.96637784035031],[-75.17014682292938,39.96719189376626]]],"type":"Polygon"},"properties":{"description":"","fill":"#1087bf","fill-opacity":0.2,"id":"marker-huyait2j7","stroke":"#1087bf","stroke-opacity":1,"stroke-width":4,"title":"Cherry Hill Burying Ground"},"type":"Feature"},{"geometry":{"coordinates":[-75.22994935512543,40.085726225904644],"type":"Point"},"properties":{"description":"Catholic","id":"marker-huyckbjae","marker-color":"#1087bf","marker-size":"medium","marker-symbol":"cemetery","title":"Convent of Sisters of St. Joseph"},"type":"Feature"},{"geometry":{"coordinates":[[[-75.0972443819046,39.98996295868351],[-75.09666502475737,39.98930124763429],[-75.09446561336517,39.990441770445344],[-75.09505033493042,39.99110552540496],[-75.0972443819046,39.98996295868351]]],"type":"Polygon"},"properties":{"description":"Catholic","fill":"#1087bf","fill-opacity":0.2,"id":"marker-huyeh2f8j","stroke":"#1087bf","stroke-opacity":1,"stroke-width":4,"title":"St. Peter's German Redemptionist Fathers Cemetery"},"type":"Feature"},{"geometry":{"coordinates":[[[-75.17876744270325,39.95940865306549],[-75.17679333686829,39.959129048430306],[-75.17723321914673,39.957155336134385],[-75.17830610275267,39.95730336653257],[-75.17876744270325,39.95940865306549]]],"type":"Polygon"},"properties":{"description":"","fill":"#3ca0d3","fill-opacity":0.2,"id":"marker-huyaqrg98","stroke":"#63b6e5","stroke-opacity":1,"stroke-width":4,"title":"The Wigwam Hospital [temp. City Hospital]"},"type":"Feature"},{"geometry":{"coordinates":[[[-75.07048666477203,40.00163637797754],[-75.07013261318207,40.00116997263466],[-75.0695076584816,40.00148844358823],[-75.06987512111662,40.001956901388105],[-75.07048666477203,40.00163637797754]]],"type":"Polygon"},"properties":{"description":"Catholic","fill":"#1087bf","fill-opacity":0.2,"id":"marker-huyeq0qxl","stroke":"#1087bf","stroke-opacity":1,"stroke-width":4,"title":"All Saint's Ground"},"type":"Feature"},{"geometry":{"coordinates":[[[-75.0652939081192,40.00213770880209],[-75.06602615118027,40.002552742191384],[-75.06661623716354,40.00196511991731],[-75.06578207015991,40.00167336152477],[-75.0652939081192,40.00213770880209]]],"type":"Polygon"},"properties":{"description":"Presbyterian","fill":"#1087bf","fill-opacity":0.2,"id":"marker-huyen59vk","stroke":"#1087bf","stroke-opacity":1,"stroke-width":4,"title":"First Presbyterian Church of Bridesburg"},"type":"Feature"},{"geometry":{"coordinates":[[[-75.07116794586182,40.002499322193636],[-75.07084608078003,40.002102780134436],[-75.07024794816971,40.00241919211864],[-75.07057785987854,40.002807513913346],[-75.07116794586182,40.002499322193636]]],"type":"Polygon"},"properties":{"description":"","fill":"#1087bf","fill-opacity":0.2,"id":"marker-huyeyhxvn","stroke":"#1087bf","stroke-opacity":1,"stroke-width":4,"title":"Emanuel Church Burying Grounds"},"type":"Feature"},{"geometry":{"coordinates":[[[-75.07845282554626,40.001225448326956],[-75.07942914962769,39.9998077220482],[-75.07916629314423,39.99941321906597],[-75.07974565029143,39.99911734033355],[-75.0791823863983,39.99844338954605],[-75.07863521575928,39.99872694282208],[-75.07646799087524,39.995903685965715],[-75.07505714893341,39.99663930561922],[-75.0761193037033,39.99806942617868],[-75.07585644721985,39.99820503950461],[-75.07624804973602,39.998632425194224],[-75.07645726203918,39.99852763375822],[-75.07845282554626,40.001225448326956]]],"type":"Polygon"},"properties":{"description":"Catholic","fill":"#1087bf","fill-opacity":0.2,"id":"marker-huyf5azwo","stroke":"#1087bf","stroke-opacity":1,"stroke-width":4,"title":"Most Holy Redeemer Cemetery"},"type":"Feature"},{"geometry":{"coordinates":[[[-75.19025802612305,39.951554617351285],[-75.18792986869812,39.95127498060415],[-75.18819808959961,39.949967252406914],[-75.19052624702454,39.950238669749126],[-75.19025802612305,39.951554617351285]]],"type":"Polygon"},"properties":{"description":"","fill":"#1087bf","fill-opacity":0.2,"id":"marker-huyawhv49","stroke":"#63b6e5","stroke-opacity":1,"stroke-width":4,"title":"Blockley Almshouse Cemetery #1"},"type":"Feature"},{"geometry":{"coordinates":[[[-75.19822955131531,39.945936989396465],[-75.19755363464355,39.9450815560893],[-75.19616961479187,39.9456573296844],[-75.1969313621521,39.94651275579229],[-75.19822955131531,39.945936989396465]]],"type":"Polygon"},"properties":{"description":"","fill":"#1087bf","fill-opacity":0.2,"id":"marker-huyb1ijha","stroke":"#63b6e5","stroke-opacity":1,"stroke-width":4,"title":"Blockley Almshouse Cemetery #2"},"type":"Feature"},{"geometry":{"coordinates":[[[-75.16252934932709,39.93953331793824],[-75.16113460063934,39.93935645787777],[-75.16156911849976,39.937341043510756],[-75.16295313835144,39.937530248200396],[-75.16252934932709,39.93953331793824]]],"type":"Polygon"},"properties":{"description":"","fill":"#1087bf","fill-opacity":0.2,"id":"marker-huyb9837b","stroke":"#63b6e5","stroke-opacity":1,"stroke-width":4,"title":"Moyamensing Almshouse Burial Ground"},"type":"Feature"},{"geometry":{"coordinates":[[[-75.17431765794753,40.026521775149384],[-75.17491042613983,40.02686477442188],[-75.17530739307404,40.02647042780449],[-75.17471998929977,40.026125372644294],[-75.17431765794753,40.026521775149384]]],"type":"Polygon"},"properties":{"description":"","fill":"#1087bf","fill-opacity":0.2,"id":"marker-huybqf4ac","stroke":"#63b6e5","stroke-opacity":1,"stroke-width":4,"title":"Germantown Potters Field"},"type":"Feature"},{"geometry":{"coordinates":[[[-75.1678454875946,39.99413652257368],[-75.16753435134888,39.99556258589554],[-75.1642459630966,39.9951269616419],[-75.164315700531,39.99476530920716],[-75.16606986522675,39.99393103549069],[-75.1678454875946,39.99413652257368]]],"type":"Polygon"},"properties":{"description":"","fill":"#1087bf","fill-opacity":0.2,"id":"marker-huybw2u7d","stroke":"#1087bf","stroke-opacity":1,"stroke-width":4,"title":"City Municipal Hospital/City Potters Field"},"type":"Feature"},{"geometry":{"coordinates":[[[-75.14977544546127,39.94679652459045],[-75.14980226755142,39.946671090701635],[-75.15047818422318,39.94674922987248],[-75.15045404434204,39.946876719907024],[-75.14977544546127,39.94679652459045]]],"type":"Polygon"},"properties":{"description":"","fill":"#1087bf","fill-opacity":0.2,"id":"marker-huylk4t50","stroke":"#1087bf","stroke-opacity":1,"stroke-width":4,"title":"African Episcopal Church of St. Thomas"},"type":"Feature"},{"geometry":{"coordinates":[[[-75.15383094549179,39.94117439297857],[-75.15387386083603,39.94097080310077],[-75.15413403511046,39.94100781948726],[-75.1540857553482,39.94120935279565],[-75.15383094549179,39.94117439297857]]],"type":"Polygon"},"properties":{"description":"","fill":"#1087bf","fill-opacity":0.2,"id":"marker-huylyna41","stroke":"#1087bf","stroke-opacity":1,"stroke-width":4,"title":"First African Presbyterian Church"},"type":"Feature"},{"geometry":{"coordinates":[[[-75.1533454656601,39.942546038285585],[-75.15314429998398,39.94252136125158],[-75.15311747789383,39.94265502841258],[-75.15331864356995,39.94267970539837],[-75.1533454656601,39.942546038285585]]],"type":"Polygon"},"properties":{"description":"","fill":"#1087bf","fill-opacity":0.2,"id":"marker-huym5pw72","stroke":"#1087bf","stroke-opacity":1,"stroke-width":4,"title":"Second African Presbyterian Church"},"type":"Feature"},{"geometry":{"coordinates":[[[-75.1530048251152,39.943551619849806],[-75.15277683734894,39.94352694317848],[-75.15281170606613,39.94335214983523],[-75.15303701162338,39.9433768265696],[-75.1530048251152,39.943551619849806]]],"type":"Polygon"},"properties":{"description":"","fill":"#1087bf","fill-opacity":0.2,"id":"marker-huymclxq3","stroke":"#1087bf","stroke-opacity":1,"stroke-width":4,"title":"Union Baptist Church"},"type":"Feature"},{"geometry":{"coordinates":[[[-75.15130966901779,39.942992279781265],[-75.15148937702179,39.94301078743018],[-75.15140891075134,39.9433871085396],[-75.15123456716536,39.94336448820352],[-75.15130966901779,39.942992279781265]]],"type":"Polygon"},"properties":{"description":"","fill":"#1087bf","fill-opacity":0.2,"id":"marker-huymj3cf4","stroke":"#1087bf","stroke-opacity":1,"stroke-width":4,"title":"Wesley African Methodist Episcopal Zion Church"},"type":"Feature"},{"geometry":{"coordinates":[[[-75.07409691810608,40.02864957513559],[-75.07393330335617,40.029031586252145],[-75.0729489326477,40.02849759162336],[-75.07324397563934,40.0281956774257],[-75.07409691810608,40.02864957513559]]],"type":"Polygon"},"properties":{"description":"","fill":"#1087bf","fill-opacity":0.2,"id":"marker-huyof928c","stroke":"#1087bf","stroke-opacity":1,"stroke-width":4,"title":"Friends' Burial Ground"},"type":"Feature"},{"geometry":{"coordinates":[[[-75.07207453250885,40.02558930134419],[-75.07056176662445,40.02388041758879],[-75.07111966609955,40.02357642897479],[-75.0732386112213,40.025314075362],[-75.07207453250885,40.02558930134419]]],"type":"Polygon"},"properties":{"description":"","fill":"#1087bf","fill-opacity":0.2,"id":"marker-huyo28fta","stroke":"#1087bf","stroke-opacity":1,"stroke-width":4,"title":"Mount Carmel Cemetery"},"type":"Feature"},{"geometry":{"coordinates":[[[-75.07471114397049,40.02661420027281],[-75.07294625043869,40.028501699290295],[-75.07393062114716,40.029031586252145],[-75.07282555103302,40.03147969272743],[-75.06601810455322,40.027076324011524],[-75.06725192070007,40.02687504383459],[-75.0684267282486,40.02659160747641],[-75.07063150405884,40.02612742654923],[-75.0707334280014,40.02637800248628],[-75.07316887378693,40.026119210929146],[-75.0729113817215,40.02559340918626],[-75.0733083486557,40.025494820908285],[-75.07471114397049,40.02661420027281]]],"type":"Polygon"},"properties":{"description":"","fill":"#1087bf","fill-opacity":0.2,"id":"marker-huyo5tvkb","stroke":"#1087bf","stroke-opacity":1,"stroke-width":4,"title":"North Cedar Hill Cemetery"},"type":"Feature"},{"geometry":{"coordinates":[[[-75.0754165649414,40.026965414599744],[-75.06982147693634,40.022391271241766],[-75.07024794816971,40.02174425270009],[-75.07207453250885,40.02072133467822],[-75.07319033145905,40.02146901120628],[-75.07297039031982,40.02160457805094],[-75.07404327392578,40.02280207348047],[-75.0737401843071,40.022964339683284],[-75.07543802261353,40.02428299501998],[-75.07676839828491,40.02340389429406],[-75.07639288902283,40.02563448759337],[-75.07623732089996,40.02600829996126],[-75.0754165649414,40.026965414599744]]],"type":"Polygon"},"properties":{"description":"","fill":"#1087bf","fill-opacity":0.2,"id":"marker-huyntsug9","stroke":"#1087bf","stroke-opacity":1,"stroke-width":4,"title":"Cedar Hill Cemetery"},"type":"Feature"},{"geometry":{"coordinates":[-75.15491455793381,39.947152262073224],"type":"Point"},"properties":{"description":"","id":"marker-huymrjiu5","marker-color":"#1087bf","marker-size":"medium","marker-symbol":"cemetery","title":"Union Baptist Church"},"type":"Feature"},{"geometry":{"coordinates":[[[-75.11287093162537,40.00331705450523],[-75.11301040649414,40.00269245583406],[-75.11255443096161,40.00263492672169],[-75.11274218559265,40.001698017211815],[-75.1115083694458,40.001537755086936],[-75.11010825634003,40.001891153118876],[-75.10988563299179,40.00293900862368],[-75.11287093162537,40.00331705450523]]],"type":"Polygon"},"properties":{"description":"","fill":"#1087bf","fill-opacity":0.2,"id":"marker-huyn35on6","stroke":"#1087bf","stroke-opacity":1,"stroke-width":4,"title":"Bellevue Cemetery"},"type":"Feature"},{"geometry":{"coordinates":[[[-75.1038908958435,40.00324514376508],[-75.10383188724518,40.003536895441144],[-75.1047894358635,40.004615543981394],[-75.10548412799835,40.00429914217587],[-75.10465800762177,40.00334170959871],[-75.1038908958435,40.00324514376508]]],"type":"Polygon"},"properties":{"description":"","fill":"#1087bf","fill-opacity":0.2,"id":"marker-huynavtk7","stroke":"#1087bf","stroke-opacity":1,"stroke-width":4,"title":"Rodoph Shalom"},"type":"Feature"},{"geometry":{"coordinates":[[[-75.05266070365906,40.0226891031114],[-75.04980683326721,40.02419672862755],[-75.05151271820068,40.026152073403516],[-75.05440950393677,40.02465681479327],[-75.05266070365906,40.0226891031114]]],"type":"Polygon"},"properties":{"description":"","fill":"#1087bf","fill-opacity":0.2,"id":"marker-huysdy9w0","stroke":"#1087bf","stroke-opacity":1,"stroke-width":4,"title":"Magnolia Cemetery"},"type":"Feature"},{"geometry":{"coordinates":[-75.15451490879059,39.94601101677596],"type":"Point"},"properties":{"description":"","id":"marker-huzm2c4pf","marker-color":"#cccccc","marker-size":"medium","marker-symbol":"cemetery","title":""},"type":"Feature"},{"geometry":{"coordinates":[[[-75.0724983215332,40.01890140647014],[-75.06999850273132,40.01938617764306],[-75.0705349445343,40.01980932254668],[-75.07168292999268,40.019616237333636],[-75.07120013237,40.02005170533854],[-75.0712913274765,40.02016262599004],[-75.07294356822968,40.01930401327986],[-75.07256805896759,40.01897946307806],[-75.0724983215332,40.01890140647014]]],"type":"Polygon"},"properties":{"description":"","fill":"#1087bf","fill-opacity":0.2,"id":"marker-huzkcnua2","stroke":"#1087bf","stroke-opacity":1,"stroke-width":4,"title":"Chevra Bikur Cholim Cemetery"},"type":"Feature"},{"geometry":{"coordinates":[[[-75.0707870721817,40.020647388202775],[-75.07057249546051,40.020388574907535],[-75.07041692733765,40.020454305361234],[-75.07015407085419,40.02013797697196],[-75.06996631622314,40.020228356661384],[-75.06861448287964,40.01875761774812],[-75.06841599941254,40.018498797284956],[-75.06936013698578,40.01898357131813],[-75.07228374481201,40.01839198220447],[-75.0724983215332,40.018889081734415],[-75.0719565153122,40.01901643722961],[-75.07209062576293,40.0193286625992],[-75.0707870721817,40.020647388202775]]],"type":"Polygon"},"properties":{"description":"","fill":"#1087bf","fill-opacity":0.2,"id":"marker-huzkiumr3","stroke":"#1087bf","stroke-opacity":1,"stroke-width":4,"title":"Adath Jeshurun Cemetery"},"type":"Feature"},{"geometry":{"coordinates":[[[-75.07228374481201,40.01840430702999],[-75.07179021835327,40.01704856287837],[-75.06757378578186,40.01796061190908],[-75.06622195243835,40.01870831868798],[-75.06703734397888,40.01961212913166],[-75.06862789392471,40.018778159012676],[-75.06839990615845,40.018490580746246],[-75.06936550140381,40.01898357131813],[-75.07228374481201,40.01840430702999]]],"type":"Polygon"},"properties":{"description":"","fill":"#1087bf","fill-opacity":0.2,"id":"marker-huzkkbkv5","stroke":"#1087bf","stroke-opacity":1,"stroke-width":4,"title":"Mount Sinai Cemetery"},"type":"Feature"},{"geometry":{"coordinates":[[[-75.23879528045654,39.929441280901],[-75.2391466498375,39.92950092845027],[-75.23926466703415,39.92908545133771],[-75.23892134428024,39.92901551929853],[-75.23879528045654,39.929441280901]]],"type":"Polygon"},"properties":{"description":"","fill":"#1087bf","fill-opacity":0.2,"id":"marker-huzoqe7zk","stroke":"#1087bf","stroke-opacity":1,"stroke-width":4,"title":"Hebrew Mutual Burial Association"},"type":"Feature"},{"geometry":{"coordinates":[[[-75.09554386138916,40.02404062725925],[-75.0943100452423,40.0219701963801],[-75.09783983230591,40.01834884529763],[-75.09798467159271,40.018363224269606],[-75.09799003601074,40.01846798525968],[-75.09805709123611,40.018583016749766],[-75.09812414646149,40.01868161501552],[-75.0981804728508,40.01877405076027],[-75.09824752807617,40.01885005338992],[-75.09834945201874,40.01891167708154],[-75.09857475757599,40.01900411251462],[-75.09870618581772,40.01902876194233],[-75.09883761405945,40.01903697841623],[-75.09906023740768,40.01901643722961],[-75.09928822517395,40.01895070539079],[-75.09950280189514,40.018843891017696],[-75.09987831115723,40.018562475426485],[-75.10003119707108,40.01858096261771],[-75.1014232635498,40.01923417349338],[-75.10052740573883,40.0210499847107],[-75.09618759155273,40.02372636947395],[-75.09554386138916,40.02404062725925]]],"type":"Polygon"},"properties":{"description":"","fill":"#1087bf","fill-opacity":0.2,"id":"marker-huzkx5r38","stroke":"#1087bf","stroke-opacity":1,"stroke-width":4,"title":"Greenwood Cemetery"},"type":"Feature"},{"geometry":{"coordinates":[[[-75.08938819169998,40.01269562042775],[-75.08904218673706,40.01249429782571],[-75.08977979421616,40.011693110158035],[-75.09013384580612,40.01190059812309],[-75.08938819169998,40.01269562042775]]],"type":"Polygon"},"properties":{"description":"","fill":"#1087bf","fill-opacity":0.2,"id":"marker-huzl4iw89","stroke":"#1087bf","stroke-opacity":1,"stroke-width":4,"title":"St. Joachim's Cemetery"},"type":"Feature"},{"geometry":{"coordinates":[[[-75.08810877799988,40.011070642478344],[-75.08805245161057,40.01116308853229],[-75.0869956612587,40.01076865116291],[-75.08721023797989,40.01041119032806],[-75.08860230445862,40.01093300034383],[-75.08843868970871,40.011187740792195],[-75.08810877799988,40.011070642478344]]],"type":"Polygon"},"properties":{"description":"","fill":"#1087bf","fill-opacity":0.2,"id":"marker-huzl8pbka","stroke":"#1087bf","stroke-opacity":1,"stroke-width":4,"title":"Presbyterian Church of Frankford"},"type":"Feature"},{"geometry":{"coordinates":[[[-75.08470237255096,40.010400918437306],[-75.08370995521545,40.01083849961314],[-75.0841498374939,40.01147124114112],[-75.08466213941574,40.011245262697344],[-75.08470237255096,40.010400918437306]]],"type":"Polygon"},"properties":{"description":"","fill":"#1087bf","fill-opacity":0.2,"id":"marker-huzlcvjcb","stroke":"#1087bf","stroke-opacity":1,"stroke-width":4,"title":"Frankford Friends' Burial Ground"},"type":"Feature"},{"geometry":{"coordinates":[[[-75.08256196975708,40.01411718761433],[-75.08229374885559,40.01435548210624],[-75.08187532424927,40.0141069162813],[-75.08212745189667,40.01387067519541],[-75.08256196975708,40.01411718761433]]],"type":"Polygon"},"properties":{"description":"","fill":"#1087bf","fill-opacity":0.2,"id":"marker-huzlhnqpc","stroke":"#1087bf","stroke-opacity":1,"stroke-width":4,"title":"New Jerusalem Society of Frankford"},"type":"Feature"},{"geometry":{"coordinates":[[[-75.08010774850844,40.01387272946925],[-75.08026331663132,40.01370838736692],[-75.08084535598755,40.01404323398215],[-75.08068978786469,40.01420757527817],[-75.08010774850844,40.01387272946925]]],"type":"Polygon"},"properties":{"description":"","fill":"#1087bf","fill-opacity":0.2,"id":"marker-huzllnr4d","stroke":"#1087bf","stroke-opacity":1,"stroke-width":4,"title":"Wilmot Cemetery"},"type":"Feature"},{"geometry":{"coordinates":[[[-75.08785128593445,40.036256533388645],[-75.08461117744446,40.03954221407459],[-75.08707344532013,40.04086876278737],[-75.08740335702896,40.040550475588816],[-75.08797734975815,40.040392358170074],[-75.08814632892607,40.04039851859583],[-75.0886344909668,40.038425100404446],[-75.08860230445862,40.03795278581135],[-75.08785128593445,40.036256533388645]]],"type":"Polygon"},"properties":{"description":"","fill":"#1087bf","fill-opacity":0.2,"id":"marker-huzlqri5e","stroke":"#1087bf","stroke-opacity":1,"stroke-width":4,"title":"Har Nebo Cemetery"},"type":"Feature"},{"geometry":{"coordinates":[[[-75.07065296173096,40.02100684948419],[-75.07055908441544,40.02089798426744],[-75.07118940353394,40.02005375942632],[-75.0715970993042,40.02052825204596],[-75.07065296173096,40.02100684948419]]],"type":"Polygon"},"properties":{"description":"","fill":"#1087bf","fill-opacity":0.2,"id":"marker-huzk8x550","stroke":"#1087bf","stroke-opacity":1,"stroke-width":4,"title":"Cedar Hills"},"type":"Feature"},{"geometry":{"coordinates":[[[-75.13719588518143,40.060868592243175],[-75.13621151447296,40.060536028346206],[-75.13641804456711,40.06018909267438],[-75.13741046190262,40.06052371113366],[-75.13719588518143,40.060868592243175]]],"type":"Polygon"},"properties":{"description":"","fill":"#1087bf","fill-opacity":0.2,"id":"marker-huzm79pug","stroke":"#1087bf","stroke-opacity":1,"stroke-width":4,"title":"Milestown Methodish Episcopal Church"},"type":"Feature"},{"geometry":{"coordinates":[[[-75.12794226408005,40.05629672287465],[-75.12855112552643,40.05578963090395],[-75.12731730937958,40.05592718254023],[-75.12794226408005,40.05629672287465]]],"type":"Polygon"},"properties":{"description":"","fill":"#1087bf","fill-opacity":0.2,"id":"marker-huzmbt17i","stroke":"#1087bf","stroke-opacity":1,"stroke-width":4,"title":"Milestown Baptist Cemetery"},"type":"Feature"},{"geometry":{"coordinates":[[[-75.09760916233063,40.02621779830476],[-75.09599983692169,40.024706109555595],[-75.0956404209137,40.02413921763868],[-75.09627878665924,40.02386398580645],[-75.1006293296814,40.021165011848105],[-75.10220110416412,40.02241797346244],[-75.10266244411469,40.02306293161803],[-75.10281264781952,40.02325189909475],[-75.10273218154907,40.02358875286387],[-75.10240495204926,40.02390917319837],[-75.10195970535278,40.02370788367679],[-75.10031819343567,40.02517440802097],[-75.09923994541168,40.024582872583046],[-75.09760916233063,40.02621779830476]]],"type":"Polygon"},"properties":{"description":"","fill":"#1087bf","fill-opacity":0.2,"id":"marker-huzksjn26","stroke":"#1087bf","stroke-opacity":1,"stroke-width":4,"title":"Oakland Cemetery"},"type":"Feature"},{"geometry":{"coordinates":[[[-75.1693931221962,39.988861473391246],[-75.16936630010605,39.9890340953943],[-75.16907662153244,39.988995049979415],[-75.16918659210205,39.988427861435696],[-75.1685482263565,39.987807236691296],[-75.16946017742157,39.987334571679796],[-75.16965329647064,39.98651253778313],[-75.17080396413803,39.9866317333113],[-75.17175078392029,39.98749486713714],[-75.16956210136414,39.98875666696229],[-75.1693931221962,39.988861473391246]]],"type":"Polygon"},"properties":{"description":"","fill":"#1087bf","fill-opacity":0.2,"id":"marker-huznotxsj","stroke":"#1087bf","stroke-opacity":1,"stroke-width":4,"title":"United American Mechanics Cemetery"},"type":"Feature"}],"id":"samargulies.i5mnc43m","type":"FeatureCollection"}
